NUMBER,call,Station Name,,Latitude,Longitude,Elevation_Meter
10010,ENJA,JAN MAYEN(NOR-NAVY),NO,70.933333,-8.666667,9
10014,ENSO,STORD/SOERSTOKKEN,NO,59.8,5.35,49
10015,ENBL,FORDE/BRINGELAND,NO,61.45,5.866667,150
10017,ENFR,FRIGG,NO,59.933333,2,
10030,,HORNSUND RIVER,NO,77,15.5,12
10040,ENAS,NY-ALESUND II,NO,78.916667,11.933333,8
10080,ENSB,SVALBARD/LONGYEAR,NO,78.25,15.466667,29
10100,ENAN,ANDOYA/ANDENES(AFB),NO,69.3,16.15,14
10150,,HEKKINGEN (LGT-H),NO,69.6,17.833333,14
10160,,SENJA/GRASMYRSKOGEN,NO,69.283333,17.766667,50
10230,ENDU,BARDUFOSS (CIV/MIL),NO,69.05,18.55,79
10250,ENTC,TROMSO/LANGNES,NO,69.683333,18.916667,10
10280,ENBJ,BJORNOYA ISLAND,NO,74.516667,19.016667,14
10320,,OVERBYGD,NO,69.016667,19.283333,78
10330,,TORSVAG (LGT-H),NO,70.25,19.5,24
10340,,FUGLOYKALVEN (LH),NO,70.316667,20.15,37
10350,,KVESMENES-RYENG,NO,69.25,19.983333,37
10410,,NORDREISA,NO,69.75,21.033333,4
10430,,LOPPA,NO,70.333333,21.466667,11
10435,ENHK,HASVIK,NO,70.483333,22.15,10
10450,,NORDSTRAUM I KVAENA,NO,69.833333,21.883333,6
10460,ENSR,SORKJOSEN,NO,69.783333,20.966667,6
10470,ENKA,KAUTOKEINO II,NO,69.016667,23.066667,330
10490,ENAT,ALTA AIRPORT,NO,69.983333,23.366667,3
10510,,SOLOVOMI,NO,69.583333,23.533333,374
10520,ENHF,HAMMERFEST,NO,70.666667,23.666667,81
10550,,FRUHOLMEN (LGT-H),NO,71.1,24,14
10570,,CUOVDATMAKKI,NO,69.366667,24.433333,286
10590,ENNA,BANAK/LAKSELV (AFB),NO,70.066667,24.983333,8
10620,ENHO,HOPEN ISLAND,NO,76.5,25.066667,10
10650,,KARASJOK,NO,69.466667,25.5,133
10660,,HELNES (LGT-H),NO,71.066667,26.233333,33
10680,ENHV,HONNINGSVAG/VALAN,NO,71.016667,25.983333,14
10740,ENMH,MEHAMN,NO,71.033333,27.833333,13
10750,,RUSTEFJELBMA,NO,70.4,28.2,11
10780,,SLETNES (LGT-H),NO,71.083333,28.233333,10
10830,ENBV,BERLEVAG,NO,70.866667,29.033333,13
10840,,PASVIK,NO,69.166667,29.25,54
10880,ENVD,VADSO,NO,70.066667,29.85,39
10885,ENBS,BATSFJORD,NO,70.633333,29.733333,10
10890,ENKR,KIRKENES (CIV/MIL),NO,69.733333,29.9,91
10920,,MAKKAUR (LGT-H),NO,70.7,30.083333,9
10970,ENSS,SVARTNES,NO,70.35,31.05,12
10980,,VARDO,NO,70.366667,31.1,15
11020,,SKLINNA (LGT-H),NO,65.2,11,16
11030,,LEKA ISLAND,NO,65.1,11.7,47
11060,,ROST II ISLAND,NO,67.5,12.083333,11
11070,ENRS,ROST (NOR-AFB),NO,67.516667,12.1,4
11080,,VEGA-VALLSJO,NO,65.7,11.85,2
11120,ENBN,BRONNOYSUND/BRONNOY,NO,65.466667,12.216667,9
11133,ENDI,DAGALI,NO,60.416667,8.516667,798
11150,,MYKEN ISLAND,NO,66.766667,12.483333,21
11160,ENST,SANDNESSJOEN/STOKKA,NO,65.966667,12.466667,17
11210,,NORD-SOLVAER,NO,66.4,12.616667,10
11220,ENMS,MOSJOEN/KJAERSTAD &,NO,65.8,13.133333,70
11340,,MAJAVATN III,NO,65.183333,13.416667,339
11370,,STOTT,NO,66.933333,13.45,12
11380,,TENNHOLMEN (LGT-H),NO,67.3,13.5,14
11410,ENLK,LEKNES,NO,68.15,13.616667,26
11470,,SUSENDAL-BJORMO,NO,65.516667,14.016667,265
11490,,NERDAL I RANA,NO,66.266667,13.983333,39
11510,ENRA,MOIRANA,NO,66.366667,14.3,70
11520,ENBO,BODO VI (CIV/MIL),NO,67.266667,14.366667,13
11540,,LITLOY FYR,NO,68.583333,14.3,50
11550,,BO I VESTERALEN II,NO,68.633333,14.466667,13
11600,,SKROVA (LGT-H),NO,68.15,14.65,11
11610,ENSH,SVOLVAER/HELLE,NO,68.25,14.666667,9
11620,ENSK,STORKMARKNES/SKAGEN,NO,68.583333,15.016667,3
11670,,SORTLAND,NO,68.7,15.416667,3
11690,,SALTDAL,NO,66.85,15.316667,81
11720,,FINNOY I HAMAROY,NO,68,15.616667,53
11830,ENEV,EVENES (CIV/MIL)  &,NO,68.516667,16.683333,26
11890,,LILAND,NO,68.483333,16.883333,19
11910,,SKJOMEN-SLETTJORD,NO,68.283333,17.316667,6
11940,ENNK,NARVIK III/FRAMNES,NO,68.466667,17.5,23
11960,,TENEVOLL,NO,68.9,17.816667,20
11990,,SICCAJAVRE,NO,68.75,23.533333,382
12030,,KRAKENES (LGT-H),NO,62.033333,4.983333,40
12050,,SVINOY (LGT-H),NO,62.333333,5.266667,41
12090,ENOV,ORSTA-VOLDA/HOVDEN,NO,62.183333,6.066667,74
12100,ENAL,ALESUND/VIGRA,NO,62.566667,6.116667,22
12120,,ONA II,NO,62.866667,6.533333,15
12170,ENML,MOLDE/ARO,NO,62.75,7.266667,3
12180,,TAFJORD,NO,62.233333,7.416667,17
12230,ENKB,KRISTIANSUND/KVERNB,NO,63.116667,7.833333,62
12240,,SKALMEN (LGT-H),NO,63.466667,7.75,13
12270,,TINGVOLL-HANEM,NO,62.85,8.3,69
12280,,SULA,NO,63.85,8.45,28
12310,,LESJASKOG,NO,62.233333,8.366667,621
12320,,VINJEORA II,NO,63.2,9,47
12380,,FOKSTUA II,NO,62.116667,9.283333,974
12400,,HALTEN (LGT-H),NO,64.166667,9.416667,16
12410,ENOL,ORLAND III(NOR-AFB),NO,63.7,9.6,7
12450,,OPPDAL-BJORKE,NO,62.6,9.683333,630
12520,,BERKAK-LYNGHOLT,NO,62.816667,10.016667,475
12590,,BUHOLMRASA (LGT-H),NO,64.4,10.45,21
12620,,NORDOYAN (LGT-H),NO,64.8,10.55,33
12710,ENVA,TRONDHEIM/VAERNES,NO,63.466667,10.933333,17
12740,,SELBU-STUBBE,NO,63.216667,11.116667,242
12780,,VERDAL-STIKLESTAD,NO,63.8,11.566667,52
12800,,NAMDALSEID,NO,64.25,11.2,87
12820,ENRM,RORVIK/RYUM,NO,64.85,11.233333,14
12823,,BECAME STN 012820,NO,64.85,11.233333,14
12880,,ROROS (CITY),NO,62.566667,11.383333,630
12890,ENRO,ROROS AIRPORT,NO,62.583333,11.35,626
12900,ENNM,NAMSOS AIRPORT,NO,64.466667,11.583333,2
12920,,MERAKER-KROGSTAD,NO,63.45,11.7,145
12950,,HARRAN,NO,64.583333,12.533333,118
12980,,NORDLI-HOLAND,NO,64.45,13.716667,438
13040,,YTTEROYANE (LGT-H),NO,61.566667,4.683333,26
13060,,HELLISOY (LGT-H),NO,60.75,4.716667,23
13100,ENFL,FLORO,NO,61.583333,5.033333,9
13110,ENBR,BERGEN/FLESLAND AFB,NO,60.3,5.216667,50
13170,,BERGEN/FLORIDA,NO,60.383333,5.333333,36
13190,,TAKLE,NO,61.033333,5.383333,38
13200,ENSD,SANDANE/ANDA,NO,61.833333,6.116667,60
13220,,FORDE-VIE,NO,61.45,5.9,12
13250,,MODALEN II,NO,60.833333,5.95,114
13280,,KVAMSKOGEN,NO,60.4,5.916667,408
13300,,OMASTRAND,NO,60.216667,5.983333,6
13360,ENBM,VOSS/BOMOEN,NO,60.65,6.5,122
13390,,VANGSNES,NO,61.166667,6.65,54
13410,,EIDFJORD-BU,NO,60.466667,6.866667,119
13440,,REIMEGREND,NO,60.683333,6.75,560
13470,ENSG,SOGNDAL/HAUKASEN,NO,61.15,7.133333,497
13510,,FINSE III,NO,60.6,7.5,1224
13550,,LAERDAL-TONJUM,NO,61.066667,7.516667,36
13570,,FORTUN,NO,61.5,7.7,30
13600,,BRATA,NO,61.9,7.866667,711
13640,,GEILO-GEILOSTOLEN,NO,60.516667,8.216667,810
13650,,TYNKRYSSET,NO,58.266667,7.333333,340
13670,,FAGERNES,NO,60.983333,9.233333,365
13680,ENFG,FAGERNES/LEIRIN   &,NO,61,9.3,822
13700,,SKABU-STORSLAEN,NO,61.516667,9.383333,865
13720,,NESBYEN-SKOGLUND,NO,60.566667,9.133333,167
13740,,VEST-TORPA II,NO,60.933333,10.033333,542
13755,ENGC,GULLFAX (PLATFORM),NO,61.033333,2.033333,10
13780,,LILLEHAMMER-SAETHER,NO,61.1,10.483333,242
13790,,SOR-NESSET,NO,61.883333,10.15,739
13800,,VENABU,NO,61.65,10.116667,940
13830,,EVENSTAD-OVERENGET,NO,61.4,11.15,255
13840,ENGM,OSLO/GARDERMOEN,NO,60.2,11.083333,204
13890,,HAUGEDALSHOGDA,NO,61.166667,11.45,240
13910,,FLISA,NO,60.616667,12.016667,188
13930,,DREVSJO,NO,61.883333,12.05,674
14000,,EKOFISK,NO,56.533333,3.216667,46
14030,,UTSIRA (LGT-H),NO,59.3,4.883333,56
14033,ENEK,EKOFISK OIL PLTFRM,NO,56.55,3.25,3
14060,,SLATTEROY (LGT-H),NO,59.916667,5.066667,16
14080,ENHD,HAUGESUND/KARMOY  &,NO,59.35,5.216667,24
14120,,OBRESTAD (LGT-H),NO,58.65,5.55,26
14150,ENZV,STAVANGER/SOLA(AFB),NO,58.883333,5.633333,9
14170,,NEDRE VATS,NO,59.483333,5.75,65
14230,,FISTER,NO,59.183333,6.066667,1
14240,,SAUDA,NO,59.65,6.366667,5
14250,,UALAND-BJULAND,NO,58.55,6.35,200
14270,,LISTA (LGT-H),NO,58.116667,6.566667,14
14280,ENLI,LISTA/FARSUND (AFB),NO,58.1,6.633333,10
14320,,SIRDAL-TJORHOM,NO,58.883333,6.85,500
14330,,MIDTLAEGER,NO,59.833333,6.983333,1082
14350,,HAUKELISAETER/BROYT,NO,59.816667,7.216667,1019
14360,,LINDESNES (LGT-H),NO,57.983333,7.05,23
14390,,KONSMA HAEGELAND,NO,61.2,8.233333,864
14420,,BYGLANDSFJORD-SOLBA,NO,58.666667,7.8,211
14460,,OYFJELL I TELEMARK,NO,59.633333,8.266667,804
14480,,OKSOY (LGT-H),NO,58.066667,8.05,8
14500,,MOSSTRAND II,NO,59.833333,8.183333,977
14520,ENCN,KRISTIANSAND/KJEVIK,NO,58.2,8.083333,17
14550,,TVEITSUND,NO,59.033333,8.516667,255
14590,,NELAUG,NO,58.65,8.633333,161
14650,,TORUNGEN (LGT-H),NO,58.4,8.8,15
14670,,LYNGOR (LGT-H),NO,58.633333,9.15,7
14700,,GVARV,NO,59.383333,9.183333,25
14703,ENNO,NOTODDEN,NO,59.566667,9.216667,19
14740,,LYNGDAL I NUMEDAL,NO,59.9,9.533333,294
14750,ENSN,SKIEN/GEITERYGGEN,NO,59.183333,9.566667,14
14760,,JOMFRULAND (LGT-H),NO,58.866667,9.6,12
14770,,KONGSBERG IV,NO,59.666667,9.65,169
14820,,FERDER (LGT-H),NO,59.033333,10.533333,8
14830,ENTO,TORP (CIV/NOR-AFB),NO,59.2,10.266667,88
14843,ENOA,OSEBERG           &,NO,59.316667,10.45,15
14880,ENFB,OSLO/FORNEBU,NO,59.9,10.616667,17
14900,,TRYVASSHOGDA II,NO,59.983333,10.683333,529
14940,ENRY,RYGGE (NOR-AFB),NO,59.383333,10.783333,53
14960,,HOLAND-LOKEN,NO,59.8,11.466667,135
14970,,PRESTEBAKKE,NO,59,11.533333,157
14980,,MAGNOR,NO,59.966667,12.216667,153
20120,,RITSEM,SN,67.733333,17.466667,523
20200,,KATTERJAKK,SN,68.416667,18.166667,517
20320,,TORNETRASK LAKE,SN,68.216667,19.716667,393
20430,,ESRANGE,SN,67.933333,21.066667,341
20440,ESNQ,KIRUNA AIRPORT,SN,67.816667,20.333333,452
20450,,KIRUNA GEOFYSISKA,SN,67.833333,20.433333,341
20490,ESNG,GALLIVARE (PRIVATE),SN,67.15,20.833333,310
20600,,NAIMAKKA,SN,68.683333,21.533333,403
20860,,LAINIO,SN,67.766667,22.35,317
20960,,PAJALA,SN,67.216667,23.4,168
21040,,HEMAVAN,SN,65.816667,15.1,475
21080,,KLIMPFJALL,SN,65.066667,14.8,593
21120,,VUOGGATJALME,SN,66.566667,16.35,500
21200,,KVIKKJOKK,SN,66.95,17.75,337
21240,,ARJEPLOG,SN,66.033333,17.866667,430
21280,ESPD,GUNNARN (SWE-AFB),SN,65.016667,17.683333,281
21363,ESKB,BARKARBY (SWE-AFB)&,SN,59.416667,17.883333,17
21420,ESNJ,JOKKMOKK (SWE-AFB),SN,66.633333,19.65,264
21440,,ABRAUR,SN,65.983333,18.933333,374
21540,ESPE,VIDSEL (SWE-AFB),SN,65.866667,20.133333,182
21640,,PALKEM,SN,66.383333,21.633333,263
21850,,LULEA/KALLAX (AFB),SN,65.55,22.133333,34
21860,ESPA,KALLAX/LULEA (AFB),SN,65.55,22.133333,34
21960,,HAPARANDA,SN,65.833333,24.15,6
21980,,STOROHAMN (PORT),SN,65.733333,23.1,8
22000,,EDEVIK,SN,63.983333,12.866667,425
22060,,STORLIEN-VISJOVALEN,SN,63.3,12.116667,644
22220,,GADDEDE,SN,64.5,14.133333,330
22260,ESPC,OSTERSUND/FROSON AB,SN,63.183333,14.5,370
22320,,NORRAKER,SN,64.433333,15.633333,346
22340,,STROMSUND,SN,63.866667,15.583333,373
22480,,KRANGEDE,SN,63.166667,16.166667,223
22520,,IDVATTNET,SN,64.45,17.083333,353
22590,ESNK,KRAMFORS (SWE-AFB),SN,63.05,17.766667,19
22620,,LYCKSELE,SN,64.583333,18.65,234
22670,ESNO,ORNSKOLDSVIK ARPT,SN,63.4,18.966667,103
22780,,SKAGSUDDE (LGT-H),SN,63.183333,19.016667,13
22860,ESNU,UMEA AIRPORT,SN,63.8,20.283333,14
22880,,HOLMOGADD (LGT-H),SN,63.6,20.766667,6
22930,ESNS,SKELLEFTEA AIRPORT,SN,64.633333,21.083333,49
22960,,BJUROKLUBB (LGT-H),SN,64.483333,21.583333,36
23060,,RORBACKSNAS,SN,61.133333,12.816667,465
23100,,STORSJO KAPELL,SN,62.8,13.066667,583
23160,,SARNA,SN,61.7,13.166667,438
23240,,SVEG,SN,62.033333,14.366667,360
23260,,HAMRA,SN,61.65,15,455
23360,,EDSBYN,SN,61.383333,15.833333,163
23420,,FRANSTA,SN,62.516667,16.183333,105
23650,,SUNDSVALL/HARNOSAND,SN,62.533333,17.466667,6
23660,ESNN,SUNDSVALL/HARNOSAND,SN,62.533333,17.45,10
23760,ESCL,SODERHAMN (SWE-AFB),SN,61.266667,17.1,36
24000,,OSTMARK,SN,60.35,12.65,310
24040,ESKV,ARVIKA,SN,59.666667,12.583333,78
24060,,BLOMSKOG,SN,59.283333,12.05,110
24100,,MALUNG,SN,60.683333,13.716667,308
24120,,GUSTAVSFORS,SN,60.15,13.8,190
24180,ESSQ,KARLSTADT AIRPORT,SN,59.366667,13.466667,55
24280,,ATORP,SN,59.1,14.366667,105
24283,ESOE,OREBRO (PRIVATE),SN,59.233333,15.05,57
24284,ESKM,SILJAN/MORA,SN,60.966667,14.516667,193
24350,ESSD,BORLANGE (SWE-AFB),SN,60.433333,15.5,161
24430,ESSK,GAVLE/SANDVIKEN AFB,SN,60.6,16.95,79
24440,,FOLKARNA,SN,60.166667,16.316667,70
24460,ESOW,VASTERAS/HASSLO AFB,SN,59.583333,16.633333,31
24580,ESCM,UPPSALA (SWE-AFB),SN,59.883333,17.6,41
24600,ESSA,STOCKHOLM/ARLANDA,SN,59.65,17.95,61
24640,ESSB,STOCKHOLM/BROMMA,SN,59.35,17.95,11
24740,,SINGO ISLAND,SN,60.166667,18.75,14
24853,ESKN,SKAVASTA/STOCKHOLM,SN,58.783333,16.916667,43
24960,,SVENSKA HOGARNA(LH),SN,59.45,19.5,12
25080,,MASESKAR (LGT-H),SN,58.1,11.35,14
25103,ESGT,TROLLHATTAN (PVT),SN,58.316667,12.35,41
25120,ESGP,GOTEBORG/SAVE (AFB),SN,57.783333,11.883333,53
25180,,NIDINGEN (LGT-H),SN,57.3,11.9,5
25200,ESIB,SATENAS (SWE-AFB),SN,58.433333,12.7,74
25240,,MOLLA,SN,57.933333,13.066667,190
25260,ESGG,GOTEBORG/LANDVETTER,SN,57.666667,12.3,169
25270,,GOTEBORG (UPR-AIR),SN,57.666667,12.316667,155
25300,,NASHUVUD,SN,58.9,13.25,50
25350,ESGR,SKOVDE AIRPORT,SN,58.45,13.966667,105
25500,ESGJ,JONKOPING AIRPORT,SN,57.766667,14.083333,232
25550,,NASSJO,SN,57.65,14.7,305
25560,ESMV,HAGSHULT (SWE-AFB),SN,57.3,14.133333,172
25620,ESCF,LINKOPING/MALMEN,SN,58.4,15.516667,117
25625,ESSL,LINKOPING/SAAB,SN,58.4,15.683333,52
25640,,MALEXANDER,SN,58.066667,15.233333,200
25650,ESSF,HULTSFRED (SWE-AFB),SN,57.516667,15.833333,112
25660,,MALILLA,SN,57.4,15.833333,98
25710,ESSP,NORRKOPING/KUNGSANG,SN,58.583333,16.25,8
25760,,GLADHAMMAR,SN,57.716667,16.466667,35
25820,,LANDSORT (LGT-H),SN,58.75,17.866667,32
25840,,GOTSKA SANDON (LH),SN,58.4,19.2,12
25860,,HARSTENA,SN,58.25,17.016667,7
25880,,FARO ISLAND,SN,57.9,19.166667,8
25900,ESSV,VISBY AIRPORT,SN,57.666667,18.35,47
25910,ESQV,VISBY AERO STATION,SN,57.65,18.35,47
25920,,OLANDS NORRA UDDE,SN,57.366667,17.1,4
26040,ESMT,HALMSTAD (SWE-AFB),SN,56.683333,12.833333,30
26060,,KULLEN (LGT-H),SN,56.3,12.45,72
26070,ESDB,ANGELHOLM (SWE-AFB),SN,56.3,12.85,47
26160,,FALSTERBO (LGT-H),SN,55.383333,12.816667,5
26260,,OSBY,SN,56.366667,13.95,85
26300,ESDA,LJUNGBYHED(SWE-AFB),SN,56.083333,13.233333,52
26360,ESMS,MALMO/STURUP,SN,55.55,13.366667,106
26400,ESFU,VAXJO/URASA (AFB),SN,56.866667,14.8,166
26410,ESMX,VAXJO/KRONOBERG,SN,56.933333,14.733333,186
26500,,HANO ISLAND (LGT-H),SN,56.016667,14.85,55
26510,ESMK,KRISTIANSTAD/EVEROD,SN,55.916667,14.083333,23
26640,ESDF,RONNEBY (SWE-AFB),SN,56.266667,15.283333,74
26660,,UNGSKAR,SN,56.033333,15.8,3
26680,,KUNGSHOLMS FORT,SN,56.066667,15.583333,5
26700,,KALMAR AIRPORT,SN,56.683333,16.3,17
26720,ESMQ,KALMAR,SN,56.733333,16.3,16
26800,,HOBURG (LGT-H),SN,56.916667,18.15,39
28010,,KILPISJARVI,FI,69.05,20.783333,476
28050,,KEVO,FI,69.75,27.033333,101
28070,EFIV,IVALO,FI,68.616667,27.416667,148
28230,,MUONIO,FI,67.966667,23.683333,253
28234,EFKT,KITTILA,FI,67.7,24.85,643
28360,EFSO,SODANKYLA,FI,67.366667,26.65,179
28440,EFPE,PELLO,FI,66.8,24,84
28450,EFRO,ROVANIEMI (CIV/MIL),FI,66.566667,25.833333,201
28480,,SALLA,FI,66.816667,28.666667,223
28630,,KEMI I (AUT),FI,65.416667,24.133333,13
28640,EFKE,KEMI,FI,65.783333,24.583333,15
28670,EFPU,PUDASJARVI,FI,65.366667,27.016667,117
28690,EFKS,KUUSAMO,FI,65.966667,29.183333,263
28740,EFHL,HAILUOTO ISLAND,FI,65.033333,24.8,6
28744,EFYL,YLIVIESKA,FI,64.05,24.733333,77
28750,EFOU,OULU/ULEABORG,FI,64.933333,25.366667,15
28790,EFSU,SUOMUSSALMI,FI,64.9,29.016667,224
28970,EFKI,KAJAANI,FI,64.283333,27.683333,136
29010,,MASSKAR,FI,63.733333,22.583333,13
29030,EFKK,KRUUNUPYY,FI,63.716667,23.15,25
29050,,NIVALA,FI,63.916667,24.966667,81
29070,,ULKOKALLA (AUT),FI,64.333333,23.6,10
29100,,VALASSAARET (LGT-H),FI,63.433333,21.066667,8
29110,EFVA,VAASA,FI,63.05,21.766667,4
29130,EFKA,KAUHAVA (FIN-AFB),FI,63.1,23.033333,44
29150,EFVI,VIITASAARI,FI,63.083333,25.866667,132
29170,EFKU,KUOPIO (MIL/CIV),FI,63.016667,27.8,102
29190,,ILOMANTSI,FI,62.683333,30.95,165
29210,,MOIKIPAA,FI,62.883333,21.1,13
29240,EFHT,AHTARI,FI,62.533333,24.216667,161
29244,EFIL,ILMAJOKI,FI,62.7,22.833333,92
29290,EFJO,JOENSUU,FI,62.666667,29.633333,117
29350,EFJY,JYVASKYLA (MIL/CIV),FI,62.4,25.683333,145
29420,,NIINISALO,FI,61.85,22.466667,136
29440,EFTP,TAMPERE/PIRKKALA,FI,61.416667,23.583333,112
29450,EFHA,HALLI (FIN-AFB),FI,61.85,24.8,145
29470,EFMI,MIKKELI,FI,61.733333,27.3,138
29474,EFVR,VARKAUS,FI,62.166667,27.866667,87
29480,EFSA,SAVONLINNA (AUT),FI,61.95,28.95,95
29520,EFPO,PORI (MIL/CIV),FI,61.466667,21.8,17
29580,EFLP,LAPPEENRANTA,FI,61.083333,28.15,106
29610,,KUUSKAJASKARI,FI,61.133333,21.366667,10
29630,,JOKIOINEN,FI,60.816667,23.5,103
29650,,LAHTI,FI,60.966667,25.633333,84
29660,EFUT,UTTI (FIN-AFB),FI,60.9,26.933333,100
29700,EFMA,MARIEHAMN/ALAND ISL,FI,60.116667,19.9,6
29720,EFTU,TURKU/ABO,FI,60.516667,22.266667,59
29730,,SUOMUSJARVI,FI,60.4,23.766667,86
29740,EFHK,HELSINKI/VANTAA,FI,60.316667,24.966667,56
29750,EFHF,HELSINKI/MALMI    &,FI,60.25,25.05,28
29760,,RANKKI,FI,60.366667,26.966667,12
29800,,NYHAMN,FI,59.966667,19.966667,10
29810,,UTO ISLAND,FI,59.783333,21.383333,7
29820,,RUSSARO,FI,59.766667,22.95,11
29840,,BAGASKAR,FI,59.933333,24.016667,21
29870,,KALLBADAGRUND (AUT),FI,59.983333,25.6,19
29880,,ISOSAARI,FI,60.1,25.066667,5
29900,,KUMLINGE ISLAND,FI,60.3,20.75,5
29930,,MARKET (AUT),FI,60.3,19.133333,11
30010,,MUCKLE FLUGGA (LH),UK,60.85,-0.883333,53
30020,,BALTASOUND (SAWS),UK,60.75,-0.85,15
30030,EGPB,SUMBURGH (CAPE),UK,59.883333,-1.3,5
30040,,COLLAFIRTH HILL,UK,60.533333,-1.383333,228
30050,,LERWICK/SHETLAND IS,UK,60.133333,-1.183333,84
30060,,SELLA NESS (AUT),UK,60.45,-1.266667,8
30064,EGPM,SCATSA/SHETLAND ISL,UK,60.433333,-1.3,22
30065,EGPW,UNST ISLAND,UK,60.733333,-0.816667,285
30070,,MUCKLE HOLM (AUT),UK,60.583333,-1.266667,22
30080,,FAIR ISLE,UK,59.533333,-1.633333,59
30090,,NORTH RONALDSAY ISL,UK,59.366667,-2.416667,11
30100,,SULE SKERRY (AUT),UK,59.083333,-4.4,16
30110,,NORTH RONA ISL AWS,UK,59.116667,-5.816667,98
30130,,FOULA ISLAND (AUX),UK,60.15,-2.066667,22
30140,,FOULA ISLAND (AUT),UK,60.116667,-2.066667,13
30170,EGPA,KIRKWALL AIRPORT,UK,58.95,-2.9,21
30210,,LOCHBOISDALE,UK,57.15,-7.316667,6
30220,EGPL,BENBECULA ISLAND,UK,57.466667,-7.366667,6
30240,,HYSKEIR (LGT-H),UK,56.966667,-6.683333,10
30250,,BUTT OF LEWIS (LH),UK,58.516667,-6.266667,23
30260,EGPO,STORNOWAY,UK,58.216667,-6.316667,13
30270,,WATERSTEIN (AUX),UK,57.433333,-6.766667,92
30310,,LOCH GLASCARNOCH,UK,57.716667,-4.883333,265
30340,,AULTBEA (AUT),UK,57.866667,-5.633333,11
30350,,BARRA ISLAND,UK,57.033333,-7.45,3
30380,,FORT WILLIAM,UK,56.833333,-5.1,20
30400,,KILMORY (AUX),UK,56.766667,-6.05,45
30410,,AONACH MOR.(AMOS),UK,56.816667,-4.966667,1130
30440,,ALTNAHARRA,UK,58.283333,-4.433333,80
30470,,TULLOCH BRIDGE(AUT),UK,56.866667,-4.7,237
30490,,CAPE WRATH (LGT-H),UK,58.633333,-5,112
30540,,STRATHY PT. (LGT-H),UK,58.6,-4.016667,32
30550,,RACKWICK,UK,58.866667,-3.383333,20
30570,,FOYERS,UK,57.266667,-4.483333,21
30580,,INVERGORDON HARBOUR,UK,57.683333,-4.166667,3
30590,EGPE,INVERNESS/DALCROSS,UK,57.533333,-4.05,9
30600,,TUMMEL BRIDGE,UK,56.7,-4.016667,145
30620,EGQA,TAIN RANGE (SAWS),UK,57.816667,-3.966667,4
30630,,AVIEMORE,UK,57.2,-3.833333,220
30650,,CAIRNGORM MTNS(AUT),UK,57.116667,-3.633333,1245
30660,EGQK,KINLOSS RAF,UK,57.65,-3.566667,7
30670,,FEALAR LODGE,UK,56.9,-3.633333,560
30680,EGQS,LOSSIEMOUTH RAF,UK,57.716667,-3.316667,13
30700,,GLENLIVET,UK,57.35,-3.35,215
30710,,GRANTOWN-ON-SPEY,UK,57.333333,-3.633333,335
30740,,SCRABSTER HARBOUR,UK,58.616667,-3.55,10
30750,EGPC,WICK,UK,58.45,-3.083333,39
30760,,TEMP FOR 03075,UK,58.45,-3.1,39
30770,,LYBSTER,UK,58.316667,-3.283333,85
30800,,ABOYNE (SAWS),UK,57.083333,-2.833333,140
30850,,INCHMARLO,UK,57.066667,-2.533333,80
30880,,INVERBERVIE (SAWS),UK,56.85,-2.266667,134
30910,EGPD,ABERDEEN/DYCE,UK,57.2,-2.216667,65
30920,,PETERHEAD HARBOUR,UK,57.5,-1.766667,5
30940,,ROSEHEARTY,UK,57.7,-2.116667,4
31000,EGPU,TIREE ISLAND,UK,56.5,-6.883333,12
31020,,ORSAY (LGT-H),UK,55.666667,-6.5,23
31053,EGPI,ISLAY/PORT ELLEN  &,UK,55.683333,-6.25,18
31110,EGQJ,MACHRIHANISH RAF,UK,55.433333,-5.7,13
31140,,OBAN,UK,56.416667,-5.466667,4
31180,,CORSEWALL PT. (LH),UK,55,-5.15,15
31200,,LOCHRANZA,UK,55.7,-5.3,8
31320,EGOY,WEST FREUGH (AUT),UK,54.85,-4.95,12
31350,EGPK,PRESTWICK(CIV/NAVY),UK,55.5,-4.583333,20
31360,,PRESTWICK(ROYAL),UK,55.516667,-4.583333,28
31370,,WHITHORN,UK,54.7,-4.416667,40
31380,,GREENOCK (AUX),UK,55.966667,-4.8,10
31400,EGPF,GLASGOW AIRPORT,UK,55.866667,-4.433333,8
31440,,STRATHALLAN (AUT),UK,56.316667,-3.733333,35
31520,,SALSBURGH,UK,55.866667,-3.866667,275
31530,,DUNDRENNAN (AUT),UK,54.8,-4,114
31540,,DUMFRIES/DRUNGANS,UK,55.05,-3.65,16
31550,,DRUMALBIN,UK,55.616667,-3.75,237
31573,EGPT,PERTH/SCONE       &,UK,56.45,-3.366667,121
31580,,CHARTERHALL (AUT),UK,55.7,-2.383333,112
31600,EGPH,EDINBURGH AIRPORT &,UK,55.95,-3.35,41
31610,,EDDLESTON,UK,55.7,-3.216667,195
31620,,ESKDALEMUIR,UK,55.316667,-3.2,242
31634,EGPN,DUNDEE/RIVERSIDE,UK,56.45,-3.016667,4
31650,EGOM,SPADEADAM,UK,55.05,-2.55,325
31700,,SHANWELL,UK,56.433333,-2.866667,5
31710,EGQL,LEUCHARS RAF,UK,56.383333,-2.866667,12
31740,,FIFE NESS (CAPE),UK,56.3,-2.583333,6
31760,,CARTERHOUSE,UK,55.366667,-2.516667,308
31850,,ST. ABB'S HEAD (LH),UK,55.916667,-2.133333,75
32040,EGNS,ISLE OF MAN/RONALDS,UK,54.083333,-4.633333,17
32070,,SNAEFELL-ISLE,UK,54.266667,-4.466667,615
32080,,POINT OF AYRE (LH),UK,54.416667,-4.366667,9
32090,,DRUMBURGH,UK,54.933333,-3.15,7
32100,,ST. BEES HEAD (AUT),UK,54.516667,-3.6,124
32120,,KESWICK (AUT),UK,54.616667,-3.15,81
32130,,ESKMEALS,UK,54.316667,-3.4,9
32140,EGNL,WALNEY ISL/BARROW,UK,54.116667,-3.25,15
32150,,ASPATRIA,UK,54.766667,-3.316667,61
32200,,CARLISLE (AUT),UK,54.933333,-2.966667,28
32220,EGNC,CARLISLE,UK,54.933333,-2.95,26
32240,,SPADEADAM(SAMOS),UK,55.05,-2.566667,285
32250,,SHAP (AUT),UK,54.5,-2.683333,249
32260,,WARCOP (AUT),UK,54.566667,-2.416667,227
32270,,GREAT DUNSELL (AUT),UK,54.683333,-2.45,847
32290,,GREAT DUN FELL,UK,54.7,-2.45,847
32300,,REDESDALE (AUT),UK,55.283333,-2.283333,207
32350,,BOLT SHOPE PARK,UK,54.816667,-2.083333,434
32400,EGQM,BOULMER,UK,55.416667,-1.6,23
32410,,LONG FRAMLINGTON,UK,55.3,-1.8,158
32420,,BURNHOPE,UK,54.816667,-1.716667,244
32433,EGNT,NEWCASTLE         &,UK,55.033333,-1.7,81
32450,,NEWCASTLE WX CENTRE,UK,54.966667,-1.616667,50
32460,,NEWCASTLE WEA CNTR,UK,54.983333,-1.6,47
32490,,SUNDERLAND POLYTECH,UK,54.9,-1.383333,56
32570,EGXE,LEEMING RAF,UK,54.3,-1.533333,40
32610,EGXD,DISHFORTH RAF,UK,54.133333,-1.416667,35
32620,,TYNEMOUTH,UK,55.016667,-1.416667,30
32635,EGNV,TEES-SIDE,UK,54.516667,-1.416667,37
32643,EGXZ,TOPCLIFFE RAF     &,UK,54.2,-1.383333,28
32660,EGXU,LINTON-ON-OUSE RAF,UK,54.05,-1.25,16
32710,,TEESMOUTH (AUX)   &,UK,54.633333,-1.133333,12
32810,,FYLINGDALES,UK,54.366667,-0.666667,262
32820,,WHITBY,UK,54.483333,-0.6,60
32920,,BRIDLINGTON MRSC,UK,54.1,-0.166667,15
33020,EGOV,VALLEY RAF,UK,53.25,-4.533333,11
33030,,AMLWCH,UK,53.383333,-4.366667,114
33050,,CAPEL CURIG (AUT),UK,53.1,-3.933333,216
33080,,SNOWDON SUMMIT,UK,53.066667,-4.083333,1070
33120,,RHYL,UK,53.333333,-3.5,15
33130,,RHYL (AUT),UK,53.25,-3.5,77
33140,,MOEL-Y-CRIO,UK,53.216667,-3.216667,263
33160,,CROSBY,UK,53.5,-3.066667,8
33180,EGNH,BLACKPOOL AIRPORT,UK,53.766667,-3.033333,10
33210,EGNR,HAWARDEN (AUT),UK,53.166667,-2.983333,10
33220,,AUGHTON,UK,53.55,-2.916667,56
33233,EGGP,LIVERPOOL AIRPORT &,UK,53.333333,-2.85,26
33290,,WINTER HILL,UK,53.616667,-2.516667,440
33340,EGCC,MANCHESTER INTL,UK,53.35,-2.266667,78
33380,,CELLARHEAD,UK,53.033333,-2.083333,228
33390,,SKIPTON,UK,53.966667,-2.033333,158
33400,,HOLME MOSS (AUT),UK,53.533333,-1.883333,522
33420,,HOLME MOSS,UK,53.533333,-1.866667,524
33440,,BINGLEY,UK,53.816667,-1.866667,262
33450,,EMLEY MOOR,UK,53.616667,-1.666667,259
33463,EGNM,LEEDS AND BRADFORD,UK,53.866667,-1.65,208
33470,,LEEDS WEATHER CTR,UK,53.8,-1.55,47
33540,,NOTTINGHAM WX CTR,UK,53,-1.25,117
33550,EGXG,CHURCH FENTON RAF,UK,53.833333,-1.2,9
33600,EGXI,FINNINGLEY RAF,UK,53.483333,-1,17
33723,EGYE,BARKSTON HEATH RAF&,UK,52.966667,-0.566667,112
33730,EGXP,SCAMPTON RAF,UK,53.3,-0.55,61
33735,EGNJ,HUMBERSIDE,UK,53.583333,-0.35,31
33770,EGXW,WADDINGTON RAF,UK,53.166667,-0.516667,70
33790,EGYD,CRANWELL RAF,UK,53.033333,-0.5,67
33840,EGXV,LECONFIELD (AUT),UK,53.866667,-0.433333,6
33850,,DONNANOOK,UK,53.483333,0.083333,24
33860,,NORTH COATES (AUT),UK,53.5,0.066667,3
33870,,EASINGTON,UK,53.666667,0.116667,10
33880,EGXB,BINBROOK RAF,UK,53.45,-0.2,108
33910,EGXC,CONINGSBY RAF,UK,53.083333,-0.166667,7
33920,EGYW,WAINFLEET (AUT),UK,53.083333,0.266667,5
33973,EGCG,STRUBBY HELIPORT  &,UK,53.316667,0.183333,14
34010,,PORTHDYNLLAEN,UK,52.95,-4.566667,37
34020,,MYNYDD RHIW,UK,52.816667,-4.633333,253
34030,,NANTMOR,UK,53,-4.083333,53
34040,,ABERDOVEY,UK,52.55,-4.066667,22
34050,,ABERDARON (AUT),UK,52.783333,-4.733333,95
34053,EGOD,LLANBEDR,UK,52.816667,-4.133333,9
34060,,TRAWSFYNYDD,UK,52.933333,-3.933333,193
34080,,CYNWYD,UK,52.95,-3.416667,228
34100,,LAKE VYRNWY (AUT),UK,52.75,-3.466667,360
34110,,ABERHOSAN,UK,52.333333,-3.7,244
34140,EGOS,SHAWBURY RAF,UK,52.8,-2.666667,76
34145,EGWC,COSFORD RAF,UK,52.633333,-2.3,83
34150,,SHAWBURY (SAWS),UK,52.8,-2.683333,74
34183,EGOE,TERNHILL RAF      &,UK,52.866667,-2.533333,83
34185,EGNX,EAST MIDLANDS,UK,52.833333,-1.333333,94
34530,EGXJ,COTTESMORE RAF,UK,52.733333,-0.65,138
34610,,WITTERING (AUT),UK,52.616667,-0.483333,75
34620,EGXT,WITTERING RAF,UK,52.616667,-0.466667,84
34690,EGYH,HOLBEACH (AUT)    &,UK,52.866667,0.15,3
34820,EGYM,MARHAM RAF,UK,52.65,0.566667,23
34873,EGUP,SCULTHORPE (AF MET),UK,52.85,0.766667,65
34880,,WEYBOURNE (AUT),UK,52.95,1.133333,21
34903,EGYR,WATTON RAF RADAR  &,UK,52.566667,0.85,59
34920,EGSH,NORWICH WEA CNTRE &,UK,52.633333,1.316667,18
34950,EGYC,COLTISHALL RAF,UK,52.766667,1.35,20
34960,,HEMSBY,UK,52.683333,1.683333,14
35010,,CAPEL DEWI,UK,55.416667,-4,92
35020,EGUC,ABERPORTH,UK,52.133333,-4.566667,134
35030,,TRAWSCOED (AUT),UK,52.35,-3.95,63
35050,,SAINT HARMON,UK,52.333333,-3.483333,279
35070,,SENNYBRIDGE (AUT),UK,52.066667,-3.616667,309
35110,,NEWCASTLE ON CLUN,UK,52.433333,-3.116667,215
35200,,SHOBDON,UK,52.25,-2.883333,99
35210,,MADLEY,UK,52.033333,-2.85,77
35270,,GREAT MALVERN,UK,52.116667,-2.3,46
35290,,PERSHORE (AUT),UK,52.15,-2.033333,32
35340,EGBB,BIRMINGHAM AIRPORT,UK,52.45,-1.733333,99
35413,EGBE,COVENTRY AIRPORT  &,UK,52.366667,-1.483333,82
35440,,CHURCH LAWFORD(AUT),UK,52.366667,-1.333333,107
35573,EGTC,CRANFIELD,UK,52.066667,-0.616667,111
35600,,BEDFORD (SAWS),UK,52.216667,-0.5,85
35620,EGWZ,ALCONBURY RAF,UK,52.366667,-0.216667,49
35623,,BECAME STN 035620,UK,52.366667,-0.216667,49
35660,EGUY,WYTON RAF,UK,52.35,-0.116667,41
35713,EGUO,OAKINGTON         &,UK,52.266667,0.066667,13
35715,EGSC,CAMBRIDGE,UK,52.2,0.183333,15
35770,EGUN,MILDENHALL RAF,UK,52.366667,0.483333,10
35773,,BECAME STN 035770,UK,52.366667,0.483333,10
35830,EGUL,LAKENHEATH RAF,UK,52.416667,0.566667,10
35833,,BECAME STN 035830,UK,52.416667,0.566667,10
35860,EGXH,HONINGTON RAF,UK,52.333333,0.766667,54
35900,EGUW,WATTISHAM RAF,UK,52.116667,0.966667,87
35905,EGXN,NEWTON,UK,52.966667,-0.983333,55
35930,,BECCLES (AUX),UK,52.433333,1.616667,22
35953,EGVG,WOODBRIDGE RAF    &,UK,52.083333,1.4,29
35963,EGVJ,BENTWATERS RAF    &,UK,52.133333,1.433333,26
35995,EGWE,HENLOW,UK,52.016667,-0.283333,95
36040,,MILFORD-HAVEN,UK,51.7,-5.05,37
36050,EGOP,PEMBRY SANDS,UK,51.716667,-4.366667,6
36080,,PENDINE (AUT),UK,51.75,-4.516667,5
36090,,MUMBLES,UK,51.566667,-3.983333,35
36095,EGFH,SWANSEA,UK,51.6,-4.066667,90
36100,,PENCELLI (AUX),UK,51.916667,-3.316667,160
36130,,CWMBARGOED,UK,51.75,-3.333333,372
36140,,CILFYNYDD,UK,51.633333,-3.3,194
36170,,STOREY ARMS,UK,51.866667,-3.483333,457
36283,EGTG,FILTON (PRIVATE)  &,UK,51.516667,-2.583333,69
36333,EGBJ,STAVERTON (PRIVATE),UK,51.9,-2.166667,29
36383,EGDK,KEMBLE RAF        &,UK,51.666667,-2.05,133
36440,EGVA,FAIRFORD RAF,UK,51.683333,-1.783333,87
36470,,LITTLE RISSINGTON,UK,51.866667,-1.683333,215
36490,EGVN,BRIZE NORTON RAF,UK,51.75,-1.583333,88
36533,EGUD,ABINGDON RAF      &,UK,51.683333,-1.316667,80
36553,EGUA,UPPER HEYFORD RAF &,UK,51.933333,-1.25,134
36570,,BENSON (AUT),UK,51.616667,-1.1,57
36580,EGUB,BENSON RAF,UK,51.616667,-1.083333,63
36584,EGUH,HIGH WYCOMBE RAF,UK,51.633333,-0.766667,75
36720,EGWU,NORTHOLT RAF,UK,51.55,-0.416667,40
36733,EGGW,LUTON AIRPORT     &,UK,51.866667,-0.366667,160
36740,,CHENIES(AUTO),UK,51.683333,-0.533333,138
36830,EGSS,STANSTED AIRPORT,UK,51.883333,0.233333,106
36835,EGTH,HATFEILD (PRIVATE),UK,51.766667,-0.25,77
36883,EGVT,WETHERSFIELD RAF  &,UK,51.966667,0.5,98
36913,EGMC,SOUTHEND-ON-SEA   &,UK,51.566667,0.7,15
36930,,SHOEBURYNESS,UK,51.55,0.85,3
36940,,SHOEBURYNESS (AUT),UK,51.55,0.833333,2
36950,,THAMES TOWER (AUT),UK,51.666667,1.1,8
36960,,WALTON-ON-NAZE,UK,51.85,1.283333,6
37010,,GAWLISH,UK,51.016667,-4.5,126
37070,EGDC,CHIVENOR RAF,UK,51.083333,-4.15,8
37100,,LISCOMBE,UK,51.083333,-3.6,347
37120,,TIVINGTON,UK,51.2,-3.533333,83
37150,EGFF,CARDIFF-WALES ARPT,UK,51.4,-3.35,67
37155,EGDX,ST ATHAN RAF,UK,51.4,-3.433333,50
37170,,CARDIFF WEA CENTER,UK,51.483333,-3.183333,9
37243,EGGD,BRISTOL/LULSGATE  &,UK,51.383333,-2.716667,189
37260,,BRISTOL WEA CENTER,UK,51.466667,-2.6,11
37400,EGDL,LYNEHAM RAF,UK,51.5,-1.983333,156
37430,,LARKHILL,UK,51.2,-1.8,133
37435,EGVI,GREENHAM COMMON RAF,UK,51.383333,-1.283333,122
37450,EGDN,NETHERAVON (ARMY),UK,51.25,-1.766667,139
37460,EGDM,BOSCOMBE DOWN,UK,51.166667,-1.75,124
37490,EGVP,MIDDLE WALLOP,UK,51.15,-1.566667,91
37590,,TEST SAMOS 03761,UK,51.25,-0.95,123
37610,EGVO,ODIHAM RAF,UK,51.233333,-0.95,123
37630,EGRR,BRACKNELL/BEAUFORT,UK,51.383333,-0.783333,74
37640,,BRACKNELL (AUT)   &,UK,51.383333,-0.8,75
37660,EGUF,FARNBOROUGH (MIL),UK,51.283333,-0.766667,72
37663,EGKB,BIGGIN HILL       &,UK,51.316667,0.033333,183
37680,,FARNBOROUGH (SAWS),UK,51.283333,-0.783333,65
37683,EGLC,LONDON CITY AIRPORT,UK,51.5,-0.5,5
37720,EGLL,LONDON/HEATHROW,UK,51.483333,-0.45,24
37740,,CRAWLEY,UK,51.083333,-0.216667,144
37760,EGKK,LONDON/GATWICK ARPT,UK,51.15,-0.183333,62
37790,EGRB,LONDON WEA CENTER,UK,51.5,-0.116667,39
37810,,KENLEY (AUT),UK,51.3,-0.083333,170
37815,EGTI,LEAVESDEN,UK,51.683333,-0.416667,102
37850,,CHARING,UK,51.2,0.783333,91
37860,,GRAVESEND,UK,51.433333,0.383333,5
37873,EGKM,WEST MALLING      &,UK,51.283333,0.416667,104
37890,,JUBILEE CORNER,UK,51.183333,0.633333,47
37900,,EAST MALLING (AUT),UK,51.283333,0.45,32
37910,,SHEERNESS,UK,51.45,0.75,25
37930,,ANVIL GREEN,UK,51.2,1.016667,139
37960,,LANGDON BAY,UK,51.133333,1.35,117
37970,EGUM,MANSTON RAF,UK,51.35,1.35,55
38000,,SCILLY/ST. MARY'S,UK,49.916667,-6.283333,45
38030,EGHE,"SCILLY,SAINT MARY'S",UK,4955N,00618W,31
38060,,GWENNAP HEAD,UK,50.033333,-5.666667,66
38080,,CAMBORNE,UK,50.366667,-5.533333,88
38090,EGDR,CULDROSE (NAVY),UK,50.083333,-5.25,82
38100,,PENDENNIS POINT,UK,50.15,-5.066667,35
38140,,LIZARD,UK,49.95,-5.183333,57
38150,,LIZARD LIGHTHOUSE,UK,49.966667,-5.2,60
38170,EGDG,SAINT MAWGAN RAF,UK,50.433333,-5,119
38200,,DAVIDSTOW MOOR,UK,50.633333,-4.6,291
38230,,CARDINHAM (AUT),UK,50.5,-4.666667,200
38240,,BASTREET,UK,50.566667,-4.483333,233
38270,EGDB,PLYMOUTH/MOUNTBATTE,UK,50.35,-4.116667,27
38273,EGHD,PLYMOUTH/ROBOROUGH,UK,50.416667,-4.116667,25
38300,,BURRINGTON,UK,50.933333,-3.983333,199
38310,,NORTH HESSARY TOR,UK,50.55,-4,510
38370,,BRIXHAM,UK,50.4,-3.483333,3
38390,EGTE,EXETER AIRPORT,UK,50.733333,-3.416667,30
38400,,DUNKESWELL AIRPORT,UK,50.866667,-3.233333,255
38410,,TEMP FOR 03840,UK,50.866667,-3.25,255
38530,EGDY,YEOVILTON (NAVY),UK,51,-2.633333,23
38550,,PORTLAND BILL C.G.,UK,50.516667,-2.433333,53
38560,,PORTLAND BILL (LH),UK,50.516667,-2.45,11
38570,,ISLE OF PORTLAND,UK,50.516667,-2.466667,53
38580,EGDP,PORTLAND HELIPORT,UK,50.566667,-2.45,3
38620,EGHH,BOURNEMOUTH AIRPORT,UK,50.783333,-1.833333,11
38650,EGHI,SOUTHAMPTON WX CNTR,UK,50.9,-1.4,9
38660,,ST. CATHERINE'S PT.,UK,50.583333,-1.3,16
38670,EGUS,LEE-ON-SOLENT(NAVY),UK,50.816667,-1.216667,10
38683,EGHN,SANDOWN/WIGHT ISLE&,UK,50.65,-1.15,18
38720,,THORNEY ISLAND(AUT),UK,50.816667,-0.916667,4
38730,,TOTLAND,UK,50.683333,-1.533333,20
38740,,SOLENT M.R.S.C.,UK,50.8,-1.216667,9
38750,,WELLOW (AUX),UK,50.683333,-1.45,25
38760,EGKA,SHOREHAM-BY-SEA,UK,50.833333,-0.283333,2
38770,,EAST HOATHLY,UK,50.916667,0.15,38
38800,,NEWHAVEN (LGT-H),UK,50.783333,0.05,5
38810,,BREDE RIVER,UK,50.933333,0.6,82
38820,,HERSTOMONCEUX WEST,UK,50.9,0.316667,54
38830,,EASTBOURNE,UK,50.783333,0.3,3
38873,EGMD,LYDD AIRPORT      &,UK,50.95,0.933333,3
38915,EGJA,ALDERNEY/CHANNEL IS,UK,49.716667,-2.2,71
38940,EGJB,GUERNSEY AIRPORT,UK,49.433333,-2.6,102
38950,EGJJ,JERSEY AIRPORT,UK,49.216667,-2.2,84
38960,,SAINT HELIER,UK,49.2,-2.1,54
39000,,KNOCKAREVAN,UK,54.416667,-8.083333,50
39020,,CORGARY,UK,54.433333,-8.05,145
39030,,SAINT ANGELO (AUT),UK,54.4,-7.65,47
39050,,CARRIGANS,UK,54.666667,-7.316667,113
39060,,CARMONEY,UK,55.016667,-7.233333,73
39083,EGQB,BALLYKELLY        &,UK,55.066667,-7.016667,2
39084,EGAE,EGLINTON/LONDONDERR,UK,55.05,-7.15,9
39110,,LOUGH SEA,UK,54.716667,-6.816667,225
39120,,MOYOLA(AUX),UK,54.716667,-6.516667,17
39140,,PORTRUSH,UK,55.2,-6.666667,18
39150,,PORTGLENONE,UK,54.866667,-6.45,64
39155,EGXF,COWDEN,UK,53.85,-6.1,15
39160,,BALLYPATRICK FOREST,UK,55.183333,-6.166667,156
39170,EGAA,BELFAST/ALDERGROVE,UK,54.65,-6.216667,81
39200,,HILLSBOROUGH,UK,54.8,-6.166667,38
39230,,GLENANNE (AUT),UK,54.233333,-6.5,161
39240,EGAC,BELFAST HARBOUR,UK,54.6,-5.883333,5
39250,,ORLOCK HEAD,UK,54.666667,-5.583333,34
39260,,KILLOUGH,UK,54.233333,-5.616667,18
39270,,BANGOR HARBOR,UK,54.666667,-5.666667,11
39280,,LARNE/LATHARNA,UK,54.85,-5.8,3
39520,,ROCHES POINT,IE,51.8,-8.25,41
39530,,VALENTIA OBSERVATOR,IE,51.933333,-10.25,14
39550,EICK,CORK ARPT/CORCAIGH,IE,51.85,-8.483333,162
39570,,ROSSLARE/ROS LAIR,IE,52.25,-6.333333,25
39600,,KILKENNY,IE,52.666667,-7.266667,64
39620,EINN,SHANNON AIRPORT,IE,52.7,-8.916667,20
39640,,GALWAY/GAILLIMH,IE,53.283333,-9.016667,21
39650,,BIRR/BIORRA,IE,53.083333,-7.883333,72
39670,EIME,CASEMENT (MIL),IE,53.3,-6.433333,93
39690,EIDW,DUBLIN AIRPORT,IE,53.433333,-6.25,85
39700,,CLAREMORRIS,IE,53.716667,-8.983333,69
39710,,MULLINGAR,IE,53.533333,-7.366667,104
39740,,CLONES/CLUAN EOIS,IE,54.183333,-7.233333,89
39760,,BELMULLET PENINSULA,IE,54.233333,-10,10
39800,,MALIN HEAD,IE,55.366667,-7.333333,25
40040,,GUFUSKALAR,IL,64.9,-23.933333,9
40050,,BOLUNGAVIK,IL,66.166667,-23.25,22
40070,,HOLAR I DYRAFIRDI,IL,65.866667,-23.6,30
40130,BIST,STYKKISHOLMUR,IL,65.083333,-22.733333,8
40140,,REYKJANESVITI (LH),IL,63.816667,-22.716667,26
40180,BIKF,KEFLAVIK (CIV/MIL),IL,63.966667,-22.6,54
40184,KQNT,KEFLAVIK (NWSED),IL,63.983333,-22.6,52
40230,,HORNBJARGSVITI (LH),IL,66.416667,-22.383333,27
40300,BIRK,REYKJAVIK (NOTAM),IL,64.133333,-21.9,61
40340,,HAMRAENDAR,IL,64.666667,-21.6,46
40380,,EYRARBAKKI,IL,63.866667,-21.15,5
40410,,TANNSTADABAKKI,IL,65.283333,-21.1,8
40450,,BLONDUOS,IL,65.666667,-20.3,22
40480,BIVM,VESTMANNAEYJAR (LH),IL,63.4,-20.283333,124
40530,,BERGSTADIR,IL,65.7,-19.616667,46
40560,,HVERAVELLIR,IL,64.866667,-19.566667,642
40580,,VATNSSKARDSHOLAR LH,IL,63.416667,-19.183333,20
40620,,NORDURHJALEIGA,IL,63.5,-18.383333,18
40630,BIAR,AKUREYRI,IL,65.683333,-18.083333,27
40640,,KIRKJUBAEJARKLAUSTU,IL,63.783333,-18.066667,38
40650,BIGR,GRIMSEY ISLAND,IL,66.533333,-18.016667,16
40690,,STADARHOLL,IL,65.816667,-17.2,42
40730,,GRIMSSTADIR,IL,65.633333,-16.116667,386
40770,BIRG,RAUFARHOFN,IL,66.45,-15.95,10
40810,,SAUDANES,IL,66.25,-15.266667,17
40820,BIHN,HJARDARNES/HORNAFJO,IL,64.25,-15.183333,10
40850,BIVO,SKJALDTHINGSSTADIR,IL,65.75,-14.833333,48
40870,,STRANDHOFN,IL,65.9,-14.65,20
40890,BIEG,EGILSSTADIR,IL,65.283333,-14.366667,38
40910,,REYDARFJORDUR,IL,65.033333,-14.233333,25
40970,,DALATANGI (LGT-H),IL,65.266667,-13.583333,11
41100,,NAVY OPERATED(AMOS),GL,72.283333,-38.8,3195
41150,,NAVY OPERATED(AMOS),GL,72.583333,-38.766667,3213
41650,,DYE 2 (SEA BASS),GL,66.483333,-46.283333,2330
41750,,DYE 3 (SOB STORY),GL,65.183333,-43.833333,2647
42003,BGDU,DUNDAS            &,GL,76.5,-69,20
42020,BGTL,THULE AB,GL,76.533333,-68.5,59
42030,,CAREY ISLAND (AUT),GL,76.633333,-73,11
42070,,HALL LAND (AUT),GL,81.733333,-59,105
42080,,EDDERFUGLE OER(AUT),GL,74.033333,-57.816667,40
42090,BGUP,UPERNAVIK AWS (AUT),GL,72.783333,-56.166667,63
42140,,NUGSSUAQ PENINSULA,GL,70.683333,-54.616667,27
42173,BGCH,CHRISTIANHAB(PORT)&,GL,68.75,-51.5,76
42183,BGGN,GODHAVN (PORT)    &,GL,69.333333,-53.583333,24
42200,BGEM,EGEDESMINDE/AUSIAT,GL,68.7,-52.75,47
42210,BGJN,JAKOBSHAVN (PORT) &,GL,69.25,-51.066667,25
42280,,AGTO KITSIGSSUT AUT,GL,67.783333,-53.966667,12
42300,BGHB,HOLSTEINSBORG,GL,66.916667,-53.666667,9
42310,BGSF,SONDRE STROMFJORD,GL,67,-50.8,53
42350,,DYE 1 (RED RIVER),GL,66.633333,-52.866667,1453
42403,BGST,SUKKERTOPPEN      &,GL,65.416667,-53,24
42420,,SIORALIK (AUT),GL,65.016667,-52.55,14
42500,BGGH,GODTHAB (PORT),GL,64.166667,-51.75,70
42530,,FREDERIKSHAB ISBLIN,GL,62.566667,-50.416667,22
42540,,GODTHAB AIRPORT/NUK,GL,64.2,-51.683333,86
42600,BGFH,FREDERIKSHAB (PORT),GL,62,-49.716667,16
42610,BGGD,GRONNEDAL,GL,61.216667,-48.116667,29
42630,,ARSUK,GL,61.183333,-48.45,137
42660,,NUNARSSUIT (AUT),GL,60.766667,-48.416667,33
42700,BGBW,NARSSARSSUAQ,GL,61.183333,-45.416667,26
42720,BGJH,JULIANEHAB (PORT),GL,60.716667,-46.05,34
42740,,QAGSSIMIUT,GL,60.8,-47.1,13
42803,BGNS,NARSSAQ           &,GL,61,-46,30
42833,BGNN,NANORTALIK        &,GL,60.533333,-45.75,20
42850,BGAS,ANGISSOQ (AUT),GL,59.983333,-45.2,16
42863,BGFD,FREDERIKSDAL      &,GL,60.25,-45.5,23
43010,,CAPE MORRIS JESUP,GL,83.633333,-33.366667,4
43050,,CAPE HARALD MOLTKE,GL,82.15,-29.916667,4
43100,,NORD,GL,81.6,-16.666667,36
43120,,NORD ADS (AUT),GL,81.6,-16.683333,34
43130,,KROYERS HOLME (AUT),GL,80.633333,-13.716667,10
43200,BGDH,DANMARKSHAVN (PORT),GL,76.766667,-18.666667,12
43300,BGDB,DANEBORG (AUT),GL,74.3,-20.216667,44
43383,BGMV,MESTERS VIG       &,GL,72.25,-24.333333,10
43390,BGSC,SCORESBYSUND,GL,70.483333,-21.966667,66
43400,BGKT,CAPE TOBIN (AUT),GL,70.416667,-21.966667,41
43410,BGCO,CONSTABLE POINT,GL,70.75,-22.666667,10
43510,BGAT,APUTITEQ ADS (AUT),GL,67.783333,-32.283333,23
43600,BGAM,ANGMAGSSALIK,GL,65.6,-37.633333,52
43610,BGKK,KULUSUK AIRPORT   &,GL,65.566667,-37.116667,34
43730,,IKERMIT (AUT),GL,64.283333,-40.3,85
43803,BGTM,TINGMIARMIUT      &,GL,62.416667,-42.25,10
43820,,IKERMIUARSSUK ADS,GL,61.933333,-42.066667,39
43900,BGPC,PRINS CHRISTIAN   &,GL,60.033333,-43.116667,19
60090,,AKRABERG,FA,61.4,-6.666667,95
60100,EKVG,SORVAAG/VAGAR,FA,62.066667,-7.266667,85
60110,,THORSHAVN (PORT),FA,62.016667,-6.766667,39
60240,EKTS,THISTED ARPT (AUT)&,DN,57.066667,8.7,7
60300,EKYT,ALBORG,DN,57.1,9.866667,3
60340,EKSN,SINDAL AIRPORT,DN,57.5,10.233333,28
60410,,SKAGEN,DN,57.766667,10.65,7
60430,,FREDERIKSHAVN (AUT),DN,57.433333,10.516667,84
60440,,LAESO RENDE STRAIT,DN,57.216667,10.666667,5
60480,EKHS,HADSUND,DN,56.716667,10.116667,2
60520,,THYBORON,DN,56.7,8.216667,3
60530,,AGGERSUND,DN,56.95,9.25,6
60540,EKHO,LINDTORP AIRPORT,DN,56.4,8.45,15
60580,,HVIDE SANDE,DN,56,8.133333,3
60600,EKKA,KARUP (DAN-AFB),DN,56.283333,9.133333,52
60620,EKSV,SKIVE AIRPORT,DN,56.55,9.166667,21
60660,EKVJ,STAUNING AIRPORT,DN,55.983333,8.35,5
60690,,FOULUM (AUT),DN,56.533333,9.616667,60
60700,EKAH,TIRSTRUP (CIV/MIL),DN,56.3,10.616667,25
60710,,FORNAES (CAPE),DN,56.45,10.966667,8
60743,EKKM,ARHUS/KIRSTINESMIN&,DN,56.15,10.216667,57
60780,EKAT,ANHOLT ISLAND (AUT),DN,56.7,11.55,8
60790,,ANHOLT,DN,56.716667,11.516667,3
60800,EKEB,ESBJERG,DN,55.516667,8.55,29
60810,,BLAVAND CAPE (AUT),DN,55.566667,8.083333,22
60890,,SAEDENSTRAND,DN,55.5,8.4,11
60960,,ROMO ISLAND (AUT),DN,55.183333,8.566667,3
60990,,ROMO HAVNEBY,DN,55.083333,8.566667,5
61000,EKVA,VANDEL (DAN-AFB),DN,55.716667,9.216667,74
61040,EKBI,BILLUND AIRPORT,DN,55.733333,9.15,66
61080,EKVD,VAMDRUP (AUT/MAN),DN,55.433333,9.333333,45
61100,EKSP,SKRYDSTRUP(DAN-AFB),DN,55.233333,9.266667,40
61110,,BAGO,DN,55.3,9.8,2
61180,EKSB,SONDERBORG AIRPORT,DN,54.966667,9.8,23
61190,,KEGNAES,DN,54.85,9.983333,14
61200,EKOD,ODENSE/BELDRINGE,DN,55.466667,10.333333,17
61240,EKST,SYDFYNS/TASINGE ISL,DN,55.016667,10.566667,6
61310,,VESBORG,DN,55.766667,10.55,5
61400,,NAKSKOV AIRPORT,DN,54.816667,11.133333,-1
61420,,ALBUEN,DN,54.833333,10.966667,6
61430,EKMB,MARIBO ARPT (AUT),DN,54.7,11.45,5
61500,EKAV,AVNO (DAN-AFB),DN,55.083333,11.783333,4
61510,,OMO ISLAND,DN,55.166667,11.133333,2
61530,,TYVELSE,DN,55.383333,11.683333,38
61560,,HOLBAEK,DN,55.716667,11.716667,12
61590,,ROSNAES (CAPE),DN,55.75,10.866667,11
61600,EKVL,VAERLOSE (DAN-AFB),DN,55.766667,12.316667,31
61610,,SPODSBJERG,DN,55.983333,11.866667,5
61640,,HESSELO ISL (AUT),DN,56.2,11.716667,8
61680,,NAKKEHOVED (AUT),DN,56.116667,12.35,35
61690,,GNIBEN POINT (AUT),DN,56,11.283333,4
61700,EKRK,COPENHAGEN/ROSKILDE,DN,55.583333,12.133333,44
61730,,STEVNS,DN,55.283333,12.45,40
61790,,MOEN,DN,54.95,12.55,15
61800,EKCH,COPENHAGEN/KASTRUP,DN,55.633333,12.666667,5
61810,,COPENHAGEN/JAEGERS,DN,55.766667,12.533333,40
61830,,DROGDEN (LGT-H),DN,55.533333,12.716667,2
61860,,COPENHAGEN/LANDBOHO,DN,55.683333,12.55,9
61900,EKRN,RONNE,DN,55.066667,14.75,16
61910,,CHRISTIANSO (LGT-H),DN,55.316667,15.183333,15
61930,,HAMMERODDE,DN,55.3,14.783333,11
62000,EHYB,YPENBURG RNLAFB,NL,52.033333,4.35,1
62100,EHVB,VALKENBURG (NAVY),NL,52.183333,4.416667,2
62203,EHTX,TEXEL ISLAND      &,NL,53.083333,4.75,3
62250,,IJMUIDEN,NL,52.466667,4.583333,19
62350,EHKD,DE KOOY (NAVY)    &,NL,52.916667,4.783333,14
62390,,F3,NL,54.85,4.733333,49
62400,EHAM,AMSTERDAM/SCHIPHOL,NL,52.3,4.766667,-2
62420,EHVL,VLIELAND ISLAND,NL,53.25,4.916667,5
62440,,HOORAN AWS,NL,52.65,5.05,-1
62500,,TERSCHELLING(LGT-H),NL,53.366667,5.216667,27
62600,EHDB,DE BILT,NL,52.1,5.183333,4
62650,EHSB,SOESTERBERG RNLAFB,NL,52.133333,5.266667,13
62670,,STAVOREN AWS,NL,52.883333,5.35,3
62680,,HOUTRIB,NL,52.533333,5.433333,2
62690,,LELYSTAD AWS,NL,52.45,5.383333,-3
62700,EHLW,LEEUWARDEN RNLAFB,NL,53.216667,5.75,2
62730,,MARKESSE AWS,NL,52.7,5.883333,-3
62750,EHDL,DEELEN RNLAFB,NL,52.066667,5.883333,52
62770,,LAUWERSOOG AWS,NL,53.7,6.2,0
62780,,HEINO AWS,NL,52.433333,6.266667,5
62790,,HOOGEVEEN AWS,NL,52.733333,6.516667,14
62800,EHGG,GRONINGEN/EELDE,NL,53.133333,6.583333,4
62830,,HUPSEL AWS,NL,52.066667,6.65,29
62860,,NIEUW BEERTA AWS,NL,53.2,7.15,0
62900,EHTW,TWENTE RNLAFB,NL,52.266667,6.9,36
63100,,VLISSINGEN,NL,51.45,3.6,10
63190,,WESTDORPE AWS,NL,51.533333,3.9,2
63230,,WILHELMINADORP AWS,NL,51.533333,3.916667,1
63300,,HOEK VAN HOLLAND,NL,51.983333,4.1,13
63400,EHWO,WOENSDRECHT RNLAFB&,NL,51.45,4.333333,17
63430,,ROTTERDAM AWS,NL,51.883333,4.316667,4
63440,EHRD,ROTTERDAM AIRPORT,NL,51.95,4.45,-4
63500,EHGR,GILZE-RIJEN RNLAFB,NL,51.566667,4.933333,13
63560,,HERWIJNEN AWS,NL,51.866667,5.15,1
63700,EHEH,EINDHOVEN RNLAFB,NL,51.45,5.416667,22
63750,EHVK,VOLKEL RNLAFB,NL,51.65,5.7,21
63790,,OOST MAARLAND AWS,NL,50.8,5.716667,49
63800,EHBK,ZUID-LIMBURG/BEEK,NL,50.916667,5.783333,116
63910,,ARCEN AWS,NL,51.5,6.2,19
64000,EBFN,KOKSIJDE (BEL-AFB),BX,51.083333,2.65,9
64040,,WEST-HINDER (LV),BX,51.4,2.433333,7
64070,EBOS,OOSTENDE AIRPORT,BX,51.2,2.866667,5
64080,,OOSTENDE (PIER),BX,51.233333,2.916667,15
64160,,WEVELGEM,BX,50.816667,3.2,25
64280,EBMT,MUNTE (MIL),BX,50.933333,3.733333,60
64310,EBGT,GENT/INDUSTRY ZONE,BX,51.183333,3.816667,13
64320,EBCV,CHIEVRES AB,BX,50.566667,3.833333,63
64470,,UCCLE/UKKLE,BX,50.8,4.35,104
64480,EBMB,MELSBROEK (BEL-AFB),BX,50.9,4.5,55
64490,EBCI,CHARLEROI/GOSSELIES,BX,50.466667,4.45,192
64500,EBAW,ANTWERP/DEURNE,BX,51.2,4.466667,14
64510,EBBR,BRUSSELS NATIONAL,BX,50.9,4.533333,58
64514,,BECAME STN 064480,BX,50.9,4.5,55
64520,EBBT,BRASSCHAAT (MIL),BX,51.333333,4.5,23
64560,EBFS,FLORENNES (BEL-AFB),BX,50.233333,4.65,299
64580,EBBE,BEAUVECHAIN (BAFB),BX,50.75,4.766667,127
64620,EBWE,WEELDE (MIL),BX,51.416667,5,60
64630,EBTN,GOETSENHOVEN (MIL),BX,50.783333,4.95,81
64650,EBDT,SCHAFFEN,BX,51,5.066667,54
64655,,BECAME STN 064620,BX,51.416667,5,60
64670,EBBX,BERTRIX (BEL-AFB),BX,49.9,5.216667,461
64700,EBST,ST. TRUIDEN (BAFB),BX,50.8,5.2,75
64730,,SINSIN,BX,50.266667,5.25,244
64760,EBSU,SAINT HUBERT (MIL),BX,50.033333,5.4,557
64773,,BECAME STN 064670,BX,49.9,5.216667,461
64780,EBLG,BIERSET/LIEGE (MIL),BX,50.65,5.45,178
64790,EBBL,KLEINE-BROGEL(BAFB),BX,51.166667,5.466667,64
64800,,MEIX-DEVANT-VIRTON,BX,49.6,5.483333,252
64810,EBZW,GENK/ZWARTBERG,BX,50.933333,5.5,63
64900,EBSP,SPA/LA SAUVENIERE,BX,50.483333,5.916667,482
64950,,BOTRANGE (MOUNT),BX,50.5,6.1,695
64960,EBLB,ELSENBORN (MIL),BX,50.466667,6.183333,570
65850,,CLERVAUX/CLERF,BX,50.05,6.016667,454
65890,,LUXEMBOURG/BEGGEN,BX,49.65,6.133333,235
65900,ELLX,LUXEMBOURG (AUT),BX,49.616667,6.216667,379
66040,LSGN,NEUCHATEL (AUT),SW,47,6.95,487
66100,LSMP,PAYERNE (MIL/AUT),SW,46.816667,6.95,491
66120,,LA CHAUX-DE-FONDS,SW,47.083333,6.8,1019
66160,,FAHY (AUT),SW,47.433333,6.95,597
66280,,PLAFFEIEN-OBERSCHRO,SW,46.75,7.266667,1041
66303,LSZB,BERN/BELP         &,SW,46.916667,7.5,505
66320,LSZG,GRENCHEN,SW,47.183333,7.416667,430
66390,,NAPF MOUNTAIN (AUT),SW,47,7.933333,1406
66430,,WYNAU (AUT),SW,47.25,7.783333,416
66570,,GISWIL,SW,46.816667,8.166667,489
66580,,BUOCHS,SW,46.983333,8.383333,442
66600,,ZURICH (AUT),SW,47.383333,8.566667,569
66690,,LAEGERN (MTN RANGE),SW,47.483333,8.4,866
66700,LSZH,ZURICH-KLOTEN (AUT),SW,47.483333,8.533333,432
66720,,ALTDORF (AUT),SW,46.866667,8.633333,451
66800,,SAENTIS (AUT),SW,47.25,9.35,2500
66810,,SAINT GALLEN (AUT),SW,47.433333,9.4,790
66840,,WEESEN,SW,47.133333,9.1,423
66890,,HOERNKI,SW,47.366667,8.95,1144
66910,LSZR,RHEINECK/ALTENRHEIN,SW,47.466667,9.6,390
67000,LSGG,GENEVA/COINTRIN AUT,SW,46.25,6.133333,416
67020,,LA DOLE MTN (AUT),SW,46.433333,6.1,1675
67100,LSGL,LAUSANNE/BLECHERETE,SW,46.55,6.616667,615
67120,,AIGLE (AUT),SW,46.333333,6.916667,381
67190,,LE GRAND ST BERNARD,SW,45.866667,7.166667,2460
67200,LSGS,SION (MIL/CIV/AUT),SW,46.216667,7.333333,481
67210,,FIONNAY,SW,46.033333,7.316667,1500
67240,,MONTANA (AUT),SW,46.316667,7.483333,1508
67260,,GEMMI PASS,SW,46.4,7.616667,2342
67300,,JUNGFRAU MTN (AUT),SW,46.55,7.983333,3576
67310,,WIMIS,SW,46.766667,7.65,630
67340,,INTERLAKEN,SW,46.666667,7.883333,580
67420,,SIMPLON PASS,SW,46.25,8.033333,2008
67430,,ERNEN,SW,46.4,8.133333,1000
67460,,GRIMSEL PASS,SW,46.583333,8.333333,2000
67500,,GUETSCH (AUT),SW,46.65,8.616667,2284
67530,,PIOTTA (AUT),SW,46.516667,8.683333,1016
67560,,COMPROVASCO (AUT),SW,46.466667,8.933333,552
67590,,CIMETTA (AUT),SW,46.2,8.8,1648
67600,,LOCARNO/MONTI (AUT),SW,46.166667,8.783333,380
67620,,LOCARNO/MAGADINO,SW,46.166667,8.883333,198
67700,LSZA,LUGANO (PVT/AUT),SW,46,8.966667,276
67710,,STABIO (AUT),SW,45.85,8.933333,353
67820,,DISENTIS (AUT),SW,46.7,8.85,1180
67830,,SAN BERNARDINO PASS,SW,46.466667,9.183333,1638
67860,,CHUR-EMS (AUT),SW,46.866667,9.533333,556
67870,,TINZEN,SW,46.6,9.6,1200
67890,,LOEBBIA,SW,46.383333,9.666667,1420
67900,,ST. MORITZ,SW,46.5,9.85,1850
67910,,CORVATSCH MTN (AUT),SW,46.416667,9.816667,3299
67920,,SAMEDAN ARPT,SW,46.533333,9.883333,1706
67940,,ROBBIA (AUT),SW,46.35,10.066667,1078
69900,,VADUZ (AUT),LT,47.133333,9.533333,463
70020,,BOULOGNE,FR,50.733333,1.6,74
70030,LFAT,LE TOUQUET/P. PLAGE,FR,50.516667,1.616667,14
70050,LFOI,ABBEVILLE (AUT),FR,50.133333,1.833333,77
70093,LFAC,CALAIS/DUNKERQUE  &,FR,50.966667,1.95,3
70100,,DUNKERQUE,FR,51.05,2.333333,23
70150,LFQQ,LILLE/LESQUIN,FR,50.566667,3.1,52
70170,LFQI,CAMBRAI/EPINOY(FAF),FR,50.216667,3.15,77
70175,LFYG,NIERGNIES (FAFB),FR,50.133333,3.266667,110
70190,,BARFLEUR (POINT),FR,49.7,-1.266667,7
70200,,LA HAGUE (CAPE),FR,49.716667,-1.933333,9
70220,,VIGITE DU HAUMET,FR,49.65,-1.5,130
70240,LFRC,CHERBOURG/MAUPERTUS,FR,49.65,-1.466667,138
70270,LFRK,CAEN/CARPIQUET(AUT),FR,49.183333,-0.45,67
70280,LFOH,LE HAVRE/OCTEVILLE,FR,49.516667,0.066667,103
70290,,PORT EN BESSIN,FR,49.35,-0.766667,73
70330,LFOS,VITTEFLEUR/ST. VALE,FR,49.833333,0.65,83
70340,,CARTERET,FR,49.366667,-1.8,65
70370,LFOP,ROUEN/BOOS (AUT),FR,49.383333,1.183333,157
70380,LFOE,EVREUX/FAUVILLE FAF,FR,49.016667,1.216667,146
70390,,VALOGNES (AUT),FR,49.516667,-1.5,61
70400,,DIEPPE,FR,49.933333,1.1,34
70550,LFOB,BEAUVAIS/TILLE(AUT),FR,49.466667,2.116667,111
70570,LFPC,CREIL (FAFB),FR,49.25,2.516667,88
70573,,BECAME STN 070570,FR,49.25,2.516667,88
70610,LFOW,ST. QUENTIN/ROUPY,FR,49.816667,3.2,101
70700,LFSR,REIMS/CHAMPAGNE FAF,FR,49.3,4.033333,99
70743,LFFS,SUIPPES RANGE (MET),FR,49.15,4.533333,199
70750,LFQV,CHARLEVILLE/MEZIERE,FR,49.783333,4.633333,150
70883,LFQE,ROUVRES (FR-ARMY) &,FR,49.233333,5.666667,234
70900,LFSF,METZ/FRESCATY(FAFB),FR,49.083333,6.133333,191
70930,LFJL,METZ-NANCY-LORRAINE,FR,48.983333,6.25,264
71000,,OUESSANT ISLAND,FR,48.466667,-5.133333,32
71030,,POINTE DU RAZ,FR,48.033333,-4.733333,86
71060,LFRJ,LANDIVISIAU (NAVY),FR,48.516667,-4.15,115
71070,,BRIGNOGAN,FR,48.683333,-4.333333,22
71090,LFRL,LANVEOC/POULMIC(NV),FR,48.283333,-4.433333,82
71100,LFRB,BREST/GUIPAVAS,FR,48.45,-4.416667,103
71160,,BATZ ISLAND,FR,48.75,-4.016667,37
71165,LFRO,LANNION/SERVEL,FR,48.75,-3.466667,89
71200,LFRT,SAINT-BRIEUC ARMOR,FR,48.533333,-2.85,136
71210,,BREHAT ISLAND,FR,48.85,-3,36
71250,LFRD,DINARD/PLEURTUIT,FR,48.583333,-2.066667,59
71270,,GROUIN DE CANCALE,FR,48.716667,-1.85,41
71300,LFRN,RENNES/ST. JACQUES,FR,48.066667,-1.733333,37
71330,,POINTE DU ROC,FR,48.833333,-1.616667,42
71340,,LAVAL (AUT),FR,48.033333,-0.733333,101
71390,LFOF,ALENCON/VALFRAMBERT,FR,48.45,0.116667,141
71400,LFOC,CHATEAUDUN (FAFB),FR,48.05,1.383333,127
71430,LFOR,CHARTRES/CHAMPOL,FR,48.466667,1.516667,156
71450,,TRAPPES (AUT),FR,48.766667,2.016667,168
71460,LFPN,TOUSSUS LE NOBLE,FR,48.766667,1.1,161
71470,LFPV,VILLACOUBLAY/VELIZY,FR,48.766667,2.2,179
71480,LFPY,BRETIGNY-SUR-ORGE,FR,48.6,2.333333,85
71490,LFPO,PARIS/ORLY,FR,48.733333,2.4,96
71500,LFPB,PARIS/LE BOURGET,FR,48.966667,2.45,65
71513,LFPW,PARIS MET CENTER,FR,48.833333,2.333333,75
71530,LFPM,MELUN/VILLAROCHE,FR,48.616667,2.683333,92
71560,,PARIS/MONTSOURIS,FR,48.816667,2.333333,77
71570,LFPG,CHARLES DE GAULLE,FR,49.016667,2.533333,109
71604,LFRU,MORLAIX/PLOUJEAN,FR,48.6,-3.816667,86
71653,LFOK,CHALONS/VATRY FAFB&,FR,48.783333,4.183333,179
71680,LFQB,TROYES/BARBEREY,FR,48.333333,4.016667,118
71690,LFSI,ST. DIZIER/ROBINSON,FR,48.633333,4.9,140
71720,,LOXEVILLE (AUT),FR,48.75,5.4,316
71730,,EPINAL (AUT),FR,48.2,6.433333,317
71790,LFSL,TOUL/ROSIERES(FAFB),FR,48.783333,5.483333,298
71800,LFSN,NANCY/ESSEY,FR,48.683333,6.216667,217
71810,LFSO,NANCY/OCHEY (FAFB),FR,48.583333,5.966667,350
71900,LFST,STRASBOURG/ENTZHEIM,FR,48.55,7.633333,154
71970,LFSC,COLMAR/MEYENHEIM AB,FR,47.916667,7.4,217
72000,,PENMARCH (POINT),FR,47.8,-4.366667,22
72010,LFRQ,QUIMPER/PLUGUFFAN,FR,47.966667,-4.166667,94
72030,,BEG MELEN,FR,47.65,-3.5,54
72050,LFRH,LORIENT/LANN BIHOUE,FR,47.766667,-3.45,44
72070,,LE TALUT,FR,47.3,-3.216667,43
72100,,VANNES (AUT),FR,47.633333,-2.75,11
72170,LFRZ,ST. NAZAIRE/MONTOIR,FR,47.316667,-2.166667,4
72220,LFRS,NANTES/CHATEAU BOUG,FR,47.166667,-1.6,27
72300,LFRA,ANGERS/AVRILLE(AUT),FR,47.5,-0.566667,58
72350,LFRM,LE MANS/ARNAGE(AUT),FR,47.933333,0.2,52
72400,LFOT,TOURS/ST SYMPHORIEN,FR,47.45,0.716667,112
72470,LFYR,ROMORANTIN/PRUNIERS,FR,47.316667,1.683333,86
72490,LFOJ,ORLEANS/BRICY(FAFB),FR,47.983333,1.75,125
72550,LFLD,BOURGES (AUT),FR,47.066667,2.366667,166
72570,LFOA,AVORD (FAFB),FR,47.05,2.65,179
72600,LFQG,NEVERS/FOURCHAMBAUL,FR,47,3.1,181
72650,LFLA,AUXERRE (AUT),FR,47.8,3.55,212
72700,,CHATEAU-CHINON(AUT),FR,47.066667,3.933333,605
72760,LFQH,CHATILLON-SUR-SEINE,FR,47.85,4.55,264
72800,LFSD,DIJON/LONGVIC(FAFB),FR,47.266667,5.083333,227
72830,,LANGRES (AUT),FR,47.833333,5.316667,462
72833,LFYH,BROYE-LES-PESMES AB,FR,47.333333,5.516667,208
72880,LFSA,BESANCON/THISE(AUT),FR,47.25,5.983333,309
72920,LFSX,LUXEUIL/ST. SAUVEUR,FR,47.783333,6.35,273
72950,LFSQ,BELFORT/FONTAINE,FR,47.633333,6.866667,423
72955,LFYL,LURE/MALBOUHANS AFB,FR,47.7,6.55,317
72990,LFSB,BALE/MULHOUSE,FR,47.6,7.516667,271
73000,,SAINT SAUVEUR,FR,46.7,-2.333333,48
73060,LFRI,LA ROCHE/LES AJONCS,FR,46.7,-1.383333,91
73110,,POINTE DES BALEINES,FR,46.25,-1.566667,10
73140,,CHASSIRON (POINT),FR,46.033333,-1.416667,22
73150,LFBH,LA ROCHELLE/LALEU,FR,46.15,-1.15,10
73300,LFBN,NIORT/SOUCHE (AUT),FR,46.316667,-0.4,61
73350,LFBI,POITIERS/BIARD(AUT),FR,46.583333,0.316667,120
73540,LFLX,CHATEAUROUX/DEOLS,FR,46.85,1.716667,157
73600,,BOGUS FRENCH,FR,0,0,551
73625,LFBK,MONTLUCON/GUERET,FR,46.216667,2.366667,415
73740,LFLV,VICHY/CHARMEIL,FR,46.166667,3.4,251
73790,LFLN,SAINT YAN,FR,46.416667,4.016667,244
73820,,MONT ST. VINCENT,FR,46.65,4.433333,603
73850,LFLM,MACON/CHARNAY (AUT),FR,46.3,4.8,217
73900,,LONS-LE-SAUNIER AUT,FR,46.683333,5.516667,280
73940,,MORBIER,FR,46.566667,6.033333,928
73963,LFSP,PONTARLIER        &,FR,46.9,6.333333,817
74000,,LA COUBRE,FR,45.7,-1.233333,7
74120,LFBG,COGNAC/CHATEAUBERNA,FR,45.666667,-0.316667,31
74203,LFBU,BRIE CHAMPNIERS   &,FR,45.733333,0.216667,133
74280,LFBX,PERIGUEUX/BASSILLAC,FR,45.2,0.816667,97
74340,LFBL,LIMOGES/BELLEGARDE,FR,45.866667,1.183333,402
74380,LFBV,BRIVE/LA ROCHE(AUT),FR,45.15,1.466667,117
74600,LFLC,CLERMONT/AULNAT,FR,45.783333,3.166667,330
74710,LFHP,LE PUY/LOUDES (AUT),FR,45.083333,3.766667,833
74750,LFMH,ST ETIENNE/BOUTHEON,FR,45.533333,4.3,402
74770,,LES SAUVAGES (AUT),FR,45.933333,4.383333,730
74800,LFLY,LYON/BRON,FR,45.716667,4.95,201
74810,LFLL,LYON/SATOLAS,FR,45.733333,5.083333,240
74820,LFXA,AMBERIEU (FAFB/AUT),FR,45.983333,5.333333,257
74860,LFLS,GRENOBLE/ST. GEOIRS,FR,45.366667,5.333333,386
74910,LFLB,CHAMBERY/AIX BAINS,FR,45.65,5.883333,239
74949,LFLP,ANNECY/MEYTHET,FR,45.933333,6.1,463
74955,LFHM,MEGEVE,FR,45.866667,6.616667,950
74960,,MODANE AVRIEUX,FR,45.216667,6.716667,1104
74970,,BOURG-ST. MAURICE,FR,45.616667,6.766667,868
75000,,CAPE FERRET,FR,44.633333,-1.25,10
75020,LFBC,CAZAUX POND (FAFB),FR,44.533333,-1.133333,33
75030,LFBS,BISCAROSSE/PARENTIS,FR,44.433333,-1.25,39
75100,LFBD,BORDEAUX/MERIGNAC,FR,44.833333,-0.7,61
75170,LFYJ,CAPTIEUX (MET/OBS)&,FR,44.183333,-0.283333,133
75240,LFBA,AGEN/LA GARENNE,FR,44.183333,0.6,60
75300,LFBE,BERGERAC/ROUMANIER&,FR,44.816667,0.516667,52
75350,,GOURDON (AUT),FR,44.75,1.4,264
75373,LFCC,LALBENQUE/CAHORS  &,FR,44.35,1.483333,278
75490,LFLW,AURILLAC (AUT),FR,44.9,2.416667,639
75520,LFCR,RODEZ/MARCILLAC,FR,44.4,2.483333,580
75540,,MENDE (AUT),FR,44.533333,3.45,934
75550,LFIG,CASSAGNES-BEGONHES,FR,44.183333,2.516667,1020
75580,,MILLAU (AUT),FR,44.116667,3.016667,720
75600,,MOUNT AIGOUAL (AUT),FR,44.116667,3.583333,1565
75615,LFNB,MENDE/BRENOUX,FR,44.5,3.533333,1024
75770,LFLQ,MONTELIMAR/ANCONE,FR,44.583333,4.733333,74
75790,LFMO,ORANGE/CARITAT(FAB),FR,44.133333,4.833333,55
75860,,CARPENTRAS (AUT),FR,44.083333,5.05,105
75870,,LUS-LA-CROIX-HAUTE,FR,44.683333,5.716667,1038
75880,LFMX,ST-AUBAN-SUR-DURANC,FR,44.066667,6,461
75903,LFNA,GAP/TALLARD       &,FR,44.566667,6.083333,733
75910,,EMBRUN (AUT),FR,44.566667,6.5,876
75930,,BRIANCON,FR,44.916667,6.65,1336
76000,,SOCOA,FR,43.4,1.683333,47
76020,LFBZ,BIARRITZ/ANGLET,FR,43.466667,-1.533333,71
76030,LFBY,DAX/SEYRESSE,FR,43.683333,-1.066667,32
76070,LFBM,MONT-DE-MARSAN FAFB,FR,43.916667,-0.5,63
76100,LFBP,PONT-LONG-UZEIN/PAU,FR,43.383333,-0.416667,185
76210,LFBT,TARBES/OSSUN,FR,43.183333,-0,363
76220,LFDH,AUCH/LAMOTHE (AUT),FR,43.683333,0.6,128
76270,LFCG,ST. GIRONS/ANTICHAN,FR,43,1.1,412
76293,LFBR,MURET/LHERM       &,FR,43.45,1.266667,189
76300,LFBO,TOULOUSE/BLAGNAC,FR,43.633333,1.366667,153
76310,LFBF,TOULOUSE/FRANCAZAL,FR,43.533333,1.366667,166
76320,LFCI,ALBI/LE SEQUESTRE &,FR,43.916667,2.116667,178
76350,LFMK,CARCASSONNE/SALVAZA,FR,43.216667,2.316667,130
76410,,SETE,FR,43.4,3.683333,81
76415,LFMU,BEZIERS/VIAS,FR,43.316667,3.35,17
76430,LFMT,FREJORGUES/MONTPELL,FR,43.583333,3.966667,6
76450,LFME,NIMES/COURBESSAC,FR,43.866667,4.4,62
76460,LFTW,NIMES/GARONS (NAVY),FR,43.75,4.416667,96
76470,LFMI,ISTRES/LE TUBE FAFB,FR,43.516667,4.933333,24
76480,LFMY,SALON (FAFB),FR,43.6,5.1,60
76490,LFMA,AIX LES MILLES FAFB,FR,43.5,5.366667,111
76500,LFML,MARSEILLE/MARIGNANE,FR,43.45,5.233333,36
76520,,CAPE POMEGUES,FR,43.266667,5.3,73
76530,,CAPE COURONNE,FR,43.333333,5.05,35
76560,,BEC DE L'AIGLE,FR,43.183333,5.583333,332
76570,LFXI,APT/ST. CHRISTOL AB,FR,44.05,5.483333,837
76600,,TOULON,FR,43.1,5.933333,27
76610,,CAPE CEPET,FR,43.083333,5.933333,136
76633,LFTF,PIERREFEN (NAVY)  &,FR,43.25,6.133333,81
76670,LFTH,HYERES/LE PALYVESTR,FR,43.1,6.15,4
76700,,PORQUEROLLES,FR,43,6.233333,147
76723,LFNM,LA MOLE           &,FR,43.2,6.483333,18
76750,LFMC,LE LUC/LE CANNET,FR,43.383333,6.383333,78
76770,,CAPE CAMARAT,FR,43.2,6.683333,112
76780,,TOULON/ILE DE LEVAN,FR,43.033333,6.466667,131
76800,LFTU,FREJUS/ST. RAPHAEL,FR,43.416667,6.75,6
76840,LFMD,CANNES/MANDELIEU,FR,43.55,6.95,9
76880,,LA GAROUPE,FR,43.566667,7.133333,82
76900,LFMN,NICE/COTE D'AZUR,FR,43.65,7.2,10
76950,,CAPE FERRAT,FR,43.683333,7.333333,144
77380,,LES ESCALDES,FR,42.483333,1.983333,1432
77400,,SAINT LEOCADIE,FR,42.45,2,1328
77470,LFMP,PERPIGNAN/RIVESALTE,FR,42.733333,2.866667,48
77490,,CAPE BEAR,FR,42.516667,3.133333,86
77520,,LA PARATA,FR,41.916667,8.616667,40
77530,,ILE ROUSSE,FR,42.633333,8.916667,129
77540,LFKC,CALVI/ST. CATHERINE,FR,42.533333,8.8,58
77610,LFKJ,AJACCIO/CAMPO ORO,FR,41.916667,8.8,9
77650,LFKS,SOLENZARA (FAFB),FR,41.916667,9.4,22
77680,,LA CHIAPPA,FR,41.6,9.366667,68
77700,,PERTUSATO (CAPE),FR,41.366667,9.183333,110
77800,LFKF,FIGARI (AUT),FR,41.5,9.1,23
77850,,CAPE CORSE,FR,43,9.366667,111
77900,LFKB,BASTIA/PORETTA,FR,42.55,9.483333,12
77910,,CAPE SAGRO,FR,42.8,9.483333,120
80010,,LA CORUNA CITY,SP,43.366667,-8.416667,67
80020,LECO,LA CORUNA/ALVEDRO,SP,43.3,-8.383333,103
80030,,MONTEVENTOSO,SP,43.483333,-8.316667,240
80050,,FERROL DEL CAUDILLO,SP,43.483333,-8.233333,9
80080,,LUGO/ROZAS,SP,43.116667,-7.45,446
80110,LEAS,ASTURIAS/AVILES,SP,43.55,-6.033333,134
80140,,GIJON,SP,43.533333,-5.633333,10
80150,,OVIEDO            &,SP,43.35,-5.866667,339
80210,LEXJ,SANTANDER/PARAYAS,SP,43.433333,-3.816667,1
80230,,SANTANDER CITY,SP,43.466667,-3.816667,65
80250,LEBB,BILBAO/SONDICA,SP,43.3,-2.933333,34
80270,,SAN SEBASTIAN/IGUEL,SP,43.3,-2.05,259
80290,LESO,SAN SEBASTIAN/FUENT,SP,43.35,-1.8,8
80420,LEST,SANTIAGO/LABACOLLA,SP,42.9,-8.433333,367
80430,,MARIN,SP,42.4,-8.7,14
80440,,PONTEVEDRA,SP,42.433333,-8.65,19
80450,LEVX,VIGO/PEINADOR,SP,42.216667,-8.633333,256
80460,,VIGO,SP,42.233333,-8.733333,85
80480,,ORENSE,SP,42.333333,-7.866667,127
80530,,PONFERRADA,SP,42.533333,-6.583333,544
80550,LELN,LEON/VIRGEN CAMINO,SP,42.583333,-5.65,914
80750,LEBG,BURGOS/VILLAFRIA  &,SP,42.366667,-3.633333,891
80800,LEVT,VITORIA,SP,42.883333,-2.733333,509
80840,LELO,LOGRONO/AGONCILLO,SP,42.45,-2.333333,363
80850,LEPP,PAMPLONA/NOAIN,SP,42.766667,-1.633333,459
80870,LEBR,BARDENAS REALES MET,SP,42.2,-1.45,295
80910,,JACA,SP,42.566667,-3.133333,828
80940,,HUESCA/MONFLORITE,SP,42.083333,-0.333333,554
80960,,CANDANCHU,SP,42.783333,-0.533333,1608
81120,,TALAR,SP,42.2,0.866667,800
81170,,LA MOLINA         &,SP,42.333333,1.933333,1702
81300,,ZAMORA,SP,41.5,-5.733333,660
81400,LEVD,VALLADOLID(MIL/CIV),SP,41.716667,-4.85,854
81410,,VALLADOLID,SP,41.65,-4.766667,735
81480,,SORIA,SP,41.766667,-2.466667,1083
81570,,DAROCA,SP,41.116667,-1.416667,781
81600,LEZG,ZARAGOZA (MIL/CIV)&,SP,41.666667,-1.016667,258
81605,LEZA,ZARAGOZA (USAFB),SP,41.666667,-1.05,263
81710,,LERIDA/LLEIDA,SP,41.616667,0.633333,199
81750,LERS,REUS (CIV/MIL),SP,41.15,1.166667,76
81760,,TARRAGONA,SP,41.116667,1.25,64
81763,LELL,SABADELL,SP,41.516667,2.1,250
81810,LEBL,BARCELONA AIRPORT,SP,41.283333,2.066667,6
81820,,MONTSENY MTN RANGE,SP,41.783333,2.433333,1708
81840,LEGE,GERONA/COSTA BRAVA,SP,41.9,2.766667,129
82020,LESA,SALAMANCA (CIV/MIL),SP,40.95,-5.5,795
82100,,AVILA,SP,40.666667,-4.516667,1131
82130,,SEGOVIA,SP,40.95,-4.116667,1005
82150,,NAVACERRADA PASS,SP,40.783333,-4.016667,1888
82190,LECV,MADRI-COLMENAR,SP,40.65,-3.733333,
82200,,MADRID UNIVERSITY,SP,40.45,-3.716667,669
82204,,BECAME STN 082190,SP,40.65,-3.733333,
82210,LEMD,MADRID/BARAJAS,SP,40.45,-3.55,582
82230,LEVS,MADRID/CUATRO VIENT,SP,40.383333,-3.783333,687
82240,LEGT,MADRID/GETAFE (AFB),SP,40.3,-3.716667,612
82260,,GUADALAJARA,SP,40.633333,-3.166667,640
82270,LETO,TORREJON (USAFB)  &,SP,40.483333,-3.466667,608
82310,,CUENCA,SP,40.066667,-2.133333,956
82320,,MOLINA DE ARAGON,SP,40.85,-1.883333,1063
82330,LECH,CALAMOCHA,SP,40.866667,-1.3,899
82350,,TERUEL,SP,40.333333,-1.1,916
82380,,TORTOSA,SP,40.816667,0.5,50
82610,,CACERES,SP,39.466667,-6.333333,405
82720,,TOLEDO,SP,39.883333,-4.05,516
82800,LEAB,ALBACETE (CIV/MIL),SP,38.95,-1.85,704
82840,LEVC,VALENCIA (CIV/MIL),SP,39.5,-0.466667,62
82850,,VALENCIA,SP,39.483333,-0.383333,11
82860,,CASTELLON DE PLANA,SP,39.95,-0.066667,35
82900,,ALCIRA/ALZIRA,SP,39.15,-0.433333,20
83010,,PALMA DE MALLORCA &,SP,39.55,2.616667,6
83030,,ALFABIA MTN RANGE,SP,39.733333,2.716667,1015
83060,LEPA,PALMA DE MALLORCA,SP,39.55,2.733333,8
83070,LEPO,POLLENSA,SP,39.9,3.1,7
83140,LEMH,MAHON/MENORCA ISL,SP,39.866667,4.233333,82
83300,LEBZ,TALAVERA AB/BADAJOZ,SP,38.883333,-6.816667,192
83350,LEHI,HINOJOSA DEL DUQUE&,SP,38.516667,-5.116667,534
83480,,CIUDAD REAL (CITY),SP,38.983333,-3.916667,629
83590,,ALICANTE,SP,38.366667,-0.5,82
83600,LEAL,ALICANTE/EL ALTET,SP,38.283333,-0.55,31
83610,,AITANA (PEAK),SP,38.65,-0.266667,1497
83730,LEIB,IBIZA/ES CODOLA,SP,38.866667,1.383333,12
83830,,HUELVA,SP,37.283333,-6.916667,20
83900,LETA,SEVILLA/TABLADA   &,SP,37.366667,-6,14
83910,LEZL,SEVILLA (CIV/MIL),SP,37.416667,-5.9,31
83970,LEMO,MORON (SP-USAFB),SP,37.15,-5.616667,88
84100,LEBA,CORDOBA AIRPORT,SP,37.85,-4.833333,92
84170,,JAEN,SP,37.783333,-3.8,569
84190,LEGR,GRANADA AIRPORT,SP,37.183333,-3.783333,559
84203,LEGA,ARMILLA (CIV/MIL) &,SP,37.133333,-3.633333,686
84290,LERI,ALCANTARILLA(SP-AB),SP,37.95,-1.233333,75
84300,,MURCIA CITY,SP,38,-1.166667,62
84310,,CASTILLO GALERAS,SP,37.583333,-1,217
84330,LELC,SAN JAVIER(MIL/CIV),SP,37.783333,-0.8,3
84490,LERT,ROTA NAVAL STATION,SP,36.65,-6.35,26
84510,LEJR,JEREZ (CIV/MIL),SP,36.75,-6.066667,30
84580,,TARIFA,SP,36,-5.6,37
84820,LEMG,MALAGA (CIV/MIL),SP,36.666667,-4.483333,7
84870,LEAM,ALMERIA AIRPORT,SP,36.85,-2.383333,21
84900,,ALBORAN ISLAND,SP,35.933333,-3.033333,19
84950,LXGB,GIBRALTAR (CIV/MIL),GI,36.15,-5.35,5
85010,LPFL,FLORES ISLAND,AZ,39.45,-31.133333,29
85050,LPHR,HORTA/FAIAL ISLAND,AZ,38.516667,-28.716667,41
85060,,HORTA,AZ,38.516667,-28.633333,62
85080,,LAJES/SANTA RITA,AZ,38.75,-27.083333,55
85090,LPLA,LAJES AB,AZ,38.766667,-27.1,55
85110,,ANGRA DO HEROISMO,AZ,38.666667,-27.216667,76
85120,LPPD,PONTA DELGADA/NORDE,AZ,37.733333,-25.7,72
85130,,POINT DELGADA,AZ,37.75,-25.666667,36
85150,LPAZ,SANTA MARIA ISLAND,AZ,36.966667,-25.166667,100
85210,LPFU,FUNCHAL/MADEIRA ISL,MD,32.683333,-16.766667,55
85220,,FUNCHAL,MD,32.633333,-16.9,56
85240,LPPS,PORTO SANTO ISLAND,MD,33.066667,-16.35,82
85300,,CAPE CARVOEIRO (LH),PO,39.35,-9.4,34
85320,LPST,SINTRA/GRANJA (AFB),PO,38.833333,-9.333333,130
85340,LPMT,MONTIJO (POR-AFB),PO,38.7,-9.05,11
85350,,LISBON,PO,38.716667,-9.15,95
85360,LPPT,LISBON/PORTELA,PO,38.783333,-9.133333,123
85380,,SAGRES (POINT),PO,37,-8.95,25
85390,LPOT,OTA (POR-AFB),PO,39.116667,-8.983333,49
85400,LPMR,MONTE REAL(POR-AFB),PO,39.833333,-8.883333,54
85410,,SINES/MONTES CHAOS,PO,37.95,-8.866667,103
85430,,VIANA DO CASTELO,PO,41.7,-8.8,18
85450,LPPR,PORTO/PEDRAS RUBRAS,PO,41.233333,-8.683333,73
85460,,PORTO/SERA DO PILAR,PO,41.133333,-8.6,100
85490,,COIMBRA,PO,40.2,-8.416667,140
85520,LPTN,TANCOS (POR-AFB)  &,PO,39.483333,-8.433333,80
85540,LPFR,FARO,PO,37.016667,-7.966667,4
85570,,EVORA,PO,38.566667,-7.9,321
85580,,EVORA/C.COORD,PO,38.533333,-7.9,246
85620,LPBJ,BEJA (POR/GER-AFB),PO,38.016667,-7.866667,247
85670,LPVR,VILA REAL,PO,41.266667,-7.716667,562
85680,,PENHAS DOURADAS,PO,40.416667,-7.55,1388
85700,,CASTELO BRANCO,PO,39.833333,-7.483333,384
85710,,PORTALEGRE,PO,39.283333,-7.416667,590
85750,LPBG,BRAGANCA,PO,41.8,-6.733333,692
85790,,LISBON/GAGO COUTINH,PO,38.766667,-9.133333,105
85830,,MINDELO,CV,16.883333,-25,63
85890,,PRAIA,CV,14.9,-23.516667,35
85940,GVAC,SAL ISL/AMILCAR CAB,CV,16.733333,-22.95,55
100040,,UFS TW/EMS (AUT)  &,DL,54.166667,6.35,0
100050,,ELBE 1 (LGT-VSL),DL,54,8.116667,0
100070,,UFS DEUTSCHE BUCHT,DL,54.183333,7.433333,0
100150,,HELGOLAND/DUNE,DL,54.183333,7.9,8
100180,EDXW,WESTERLAND/SYLT   &,DL,54.916667,8.35,20
100200,,LIST/SYLT,DL,55.016667,8.416667,29
100220,,LECK (GER-AFB),DL,54.8,8.95,17
100260,,HUSUM (GER-AFB),DL,54.516667,9.15,37
100265,,SCHLESWIG,DL,54.45,9.516667,22
100330,ETGG,MEIERWIK,DL,54.833333,9.5,33
100340,ETME,EGGEBEK (GER-NAVY),DL,54.633333,9.35,22
100350,,SCHLESWIG,DL,54.533333,9.55,48
100370,ETNS,SCHLESWIG(GER-NAVY),DL,54.466667,9.516667,25
100380,ETNH,HOHN (GER-AFB),DL,54.316667,9.533333,17
100420,,OLPENITZ (AUT),DL,54.666667,10.033333,10
100440,,KIEL (LGT-H/AUT),DL,54.5,10.283333,23
100460,ETMK,KIEL/HOLTENAU(GNVY),DL,54.383333,10.15,31
100465,EDHK,KIEL/HOLTENAU CIV,DL,54.383333,10.166667,31
100480,,FRIEDRICHSORT,DL,54.383333,10.183333,11
100630,,PUTTGARDEN (AUT),DL,54.5,11.216667,3
100670,,MARIENLEUCHTE,DL,54.5,11.233333,5
100910,,ARKONA (CAPE)     &,DL,54.683333,13.433333,41
100930,,PUTBUS,DL,54.366667,13.483333,34
101130,,NORDERNEY ISLAND,DL,53.716667,7.15,16
101200,,HELGOLAND ISLAND,DL,54.183333,7.883333,53
101220,ETNJ,JEVER (GER-AFB),DL,53.533333,7.883333,21
101230,,WANGEROGGE ISLAND,DL,53.8,7.9,29
101240,,ALTE WESER (LGT-H),DL,53.866667,8.133333,31
101250,,WILHELMSHAVEN/MARI&,DL,53.5,8.05,5
101260,ETNT,WITTMUNDHAVEN(GAFB),DL,53.55,7.666667,12
101283,,SENGWARDEN (MIL)  &,DL,53.6,8.05,1
101290,,BREMERHAVEN,DL,53.533333,8.583333,11
101300,,ELPERSBUETTEL (AUT),DL,54.066667,9.016667,5
101310,,CUXHAVEN,DL,53.866667,8.7,12
101360,ETMN,NORDHOLZ (GER-NAVY),DL,53.766667,8.666667,31
101390,,BREMERVOERDE (AUT),DL,53.5,9.166667,5
101420,ETHI,ITZEHOE (GER-ARMY),DL,54,9.583333,26
101430,,NEUMUNSTER/WASBEK,DL,54.083333,9.933333,21
101443,,UETERSEN          &,DL,53.65,9.7,7
101460,,QUICKBORN,DL,53.733333,9.883333,17
101470,EDDH,HAMBURG/FUHLSBUTTEL,DL,53.633333,10,16
101490,EDHI,HAMBURG/FINKENWERD&,DL,53.533333,9.833333,13
101520,,PELZERHAKEN (AUT),DL,54.083333,10.883333,2
101560,EDHL,LUEBECK/BLANKENSEE,DL,53.816667,10.7,15
101610,,BOLTENHAGEN       &,DL,54,11.2,17
101620,,SCHWERIN          &,DL,53.633333,11.416667,68
101680,,GOLDBERG (AUT),DL,53.6,12.1,58
101700,,WARNEMUENDE       &,DL,54.183333,12.083333,10
101720,ETNL,LAAGE,DL,53.916667,12.283333,40
101770,,TETEROW           &,DL,53.766667,12.616667,50
101800,,BARTH,DL,54.366667,12.733333,7
101810,EDCP,PAROW,DL,54.366667,13.083333,4
101840,,GREIFSWALD        &,DL,54.1,13.4,6
101930,,UECKERMUENDE (AUT)&,DL,53.75,14.066667,7
101935,EDAH,HERINGSDORF,DL,53.883333,14.15,28
102000,,EMDEN/KOENIGSPOLDER,DL,53.35,7.216667,5
102030,,EMDEN/HAFEN,DL,53.35,7.2,12
102150,,OLDENBURG (GER-AFB),DL,53.183333,8.166667,20
102155,,CLAY KASERNE (AHP),DL,53.266667,8.683333,37
102180,ETNA,AHLHORN (GER-AFB),DL,52.883333,8.233333,56
102240,EDDW,BREMEN,DL,53.05,8.8,5
102244,EDWD,LEMWERDER,DL,53.15,8.616667,30
102340,ETGQ,ROTENBURG(GER-ARMY),DL,53.133333,9.35,61
102350,,SOLTAU,DL,53,9.833333,78
102380,ETGB,BERGEN (MIL),DL,52.816667,9.933333,69
102460,ETHS,FASSBERG (GER-AFB),DL,52.916667,10.183333,88
102490,,BOIZENBURG (AUT)  &,DL,53.4,10.683333,46
102530,,LUCHOW/REHBECK,DL,52.966667,11.133333,18
102610,,SEEHAUSEN/ALTMARK &,DL,52.9,11.733333,23
102640,,MARNITZ (AUT)     &,DL,53.316667,11.933333,87
102670,,KYRITZ (AUT),DL,52.933333,12.416667,40
102680,,WAREN,DL,53.516667,12.666667,71
102700,,NEURUPPIN         &,DL,52.9,12.816667,39
102720,ETGW,WITTSTOCK,DL,53.2,12.516667,74
102730,,BASEPOHL,DL,53.733333,12.933333,53
102770,,NEUGLOBSOW        &,DL,53.15,13.033333,62
102800,,NEUBRANDENBURG    &,DL,53.55,13.2,80
102810,ETNU,TROLLENHAGEN,DL,53.6,13.316667,71
102860,,WOLDEGK,DL,53.466667,13.616667,118
102890,,GRUENOW (AUT),DL,53.316667,13.933333,57
102910,,ANGERMUENDE       &,DL,53.033333,14,55
103040,ETGM,MEPPEN (MIL),DL,52.716667,7.316667,26
103050,,LINGEN,DL,52.516667,7.316667,26
103060,ETHE,RHEINE/BENTLAGE MIL,DL,52.3,7.383333,49
103080,ETUN,NORDHORN RANGE    &,DL,52.45,7.166667,26
103140,ETNP,HOPSTEN (GER-AFB),DL,52.333333,7.55,43
103150,EDDG,MUNSTER/OSNABRUCK &,DL,52.133333,7.7,52
103170,,OSNABRUCK/ATTERHEID,DL,52.25,8.05,97
103180,,BORGHOLZHAUSEN,DL,52.116667,8.283333,305
103200,ETUO,GUTERSLOH (RAF),DL,51.916667,8.3,72
103210,ETND,DIEPHOLZ (GER-AFB),DL,52.583333,8.35,43
103250,,BAD SALZUFLEN,DL,52.1,8.75,100
103280,,DETMOLD (UK-ARMY),DL,51.95,8.9,187
103340,ETNW,WUNSTORF (GER-AFB),DL,52.45,9.433333,70
103350,ETHB,BUCKEBURG(GER-ARMY),DL,52.283333,9.083333,78
103370,,HILDESHEIM        &,DL,52.183333,9.95,88
103380,EDDV,HANNOVER,DL,52.466667,9.7,54
103430,ETHC,CELLE (GER-ARMY),DL,52.6,10.016667,52
103480,EDVE,BRAUNSCHWEIG,DL,52.3,10.45,88
103560,,UMMENDORF(AUT),DL,52.166667,11.183333,163
103590,,GARDELEGEN (AUT)  &,DL,52.516667,11.4,48
103610,,MAGDEBURG         &,DL,52.116667,11.583333,85
103650,,GENTHIN (AUT),DL,52.383333,12.166667,39
103680,,WIESENBURG (AUT),DL,52.116667,12.466667,187
103700,,BRANDENBURG/BRIEST,DL,52.433333,12.45,31
103760,,BARUTH,DL,52.116667,13.616667,57
103780,,POTSDAM (SOR)     &,DL,52.366667,13.083333,89
103790,,POTSDAM           &,DL,52.383333,13.066667,100
103810,,BERLIN/DAHLEM,DL,52.466667,13.3,58
103820,EDDT,BERLIN/TEGEL (FAFB),DL,52.566667,13.316667,37
103825,,BERLIN/GATOW (RAF),DL,52.483333,13.133333,49
103840,EDDI,BERLIN/TEMPELHOF,DL,52.466667,13.4,49
103850,EDDB,BERLIN/SCHONEFELD &,DL,52.383333,13.516667,48
103890,,BERLIN/ALEXANDERPLZ,DL,52.516667,13.416667,84
103930,,LINDENBERG        &,DL,52.216667,14.116667,112
103950,,NEUHARDENBERG/WRIEZ,DL,52.616667,14.233333,10
103960,,MANSCHNOW,DL,52.55,14.55,16
104000,EDDL,DUSSELDORF,DL,51.283333,6.783333,44
104010,ETUR,BRUGGEN (RAF),DL,51.2,6.133333,76
104040,ETGY,KALKAR (MIL COMM),DL,51.75,6.283333,43
104050,ETUL,LAARBRUCH (RAF),DL,51.6,6.15,31
104060,,BOCHOLT,DL,51.833333,6.533333,24
104100,EDZE,ESSEN/MULHEIM,DL,51.4,6.966667,161
104160,EDLW,DORTMUND/WICKEDE  &,DL,51.516667,7.616667,127
104180,,LUEDENSCHEID,DL,51.25,7.65,392
104190,,LUDENSCHEID       &,DL,51.2,7.633333,431
104260,EDLP,PADERBORN/LIPPSTAD&,DL,51.616667,8.616667,213
104264,,SOEST (UK-ARMY),DL,51.583333,8.216667,125
104270,,KAHLER ASTEN(MOUNT),DL,51.183333,8.483333,859
104300,,BAD LIPPSPRINGE,DL,51.783333,8.833333,158
104320,,KOETERBERG (AUT),DL,51.85,9.316667,493
104350,,WARBURG (AUT)     &,DL,51.5,9.183333,225
104360,EDVK,KASSEL/CALDEN,DL,51.4,9.383333,285
104370,,FRITZLAR/KASSELER,DL,51.133333,9.3,223
104380,,KASSEL,DL,51.3,9.45,233
104390,ETHF,FRITZLAR (GER-ARMY),DL,51.133333,9.283333,181
104440,,GOETTINGEN,DL,51.55,9.95,173
104490,,LEINEFELDE (AUT)  &,DL,51.4,10.316667,356
104520,,BRAUNLAGE,DL,51.733333,10.6,610
104530,,BROCKEN (PEAK)    &,DL,51.8,10.616667,1153
104540,,WERNIGERODE (AUT) &,DL,51.85,10.766667,240
104550,,SCHIERKE (AUT),DL,51.766667,10.666667,617
104580,,HARZGERODE,DL,51.65,11.133333,405
104600,,ARTERN            &,DL,51.383333,11.3,166
104660,,HALLE-KROELLWITZ,DL,51.516667,11.95,93
104690,EDDP,LEIPZIG/SCHKEUDITZ&,DL,51.416667,12.233333,149
104710,,LEIPZIG           &,DL,51.316667,12.416667,146
104740,,WITTENBERG        &,DL,51.883333,12.65,106
104760,ETSH,HOLZDORF,DL,51.766667,13.183333,79
104800,,OSCHATZ           &,DL,51.3,13.1,152
104860,,WAHNSDORF         &,DL,51.116667,13.683333,232
104880,EDDC,DRESDEN/KLOTZSCHE,DL,51.133333,13.783333,226
104900,,DOBERLUG/KIRCHHAIN&,DL,51.65,13.583333,100
104920,ETHT,COTTBUS (FLUGPLATZ),DL,51.766667,14.3,67
104930,ETNR,PRESCHEN,DL,51.666667,14.633333,100
104960,,COTTBUS,DL,51.783333,14.316667,69
104990,,GOERLITZ          &,DL,51.166667,14.95,238
105000,ETNG,GEILENKIRCHEN(NATO),DL,50.966667,6.05,98
105010,,AACHEN,DL,50.783333,6.1,205
105020,ETNN,NOERVENICH (GAF),DL,50.833333,6.666667,135
105030,ETBA,AACHEN/MERZBRUCK,DL,50.816667,6.183333,191
105060,,NUERBURG-BARWEILER,DL,50.35,6.866667,486
105090,ETBB,BUTZWEILERHOF (BEL),DL,50.983333,6.9,49
105100,,NUERBURG,DL,50.333333,6.95,629
105130,EDDK,KOLN/BONN (CIV/MIL),DL,50.866667,7.166667,99
105140,ETHM,MENDIG (GER-ARMY),DL,50.366667,7.316667,191
105150,,BENDORF,DL,50.416667,7.583333,132
105170,,BONN/FRIESDORF(AUT),DL,50.7,7.15,64
105180,,BONN-HARDTHOEHE,DL,50.7,7.033333,160
105190,,BONN/ROLEBER      &,DL,50.733333,7.2,168
105260,,BAD MARIENBERG,DL,50.666667,7.966667,555
105320,,GIESSEN,DL,50.583333,8.7,195
105325,,FRIEDBERG (USA-HP),DL,50.333333,8.733333,146
105330,,GIESSEN (USA-HP),DL,50.6,8.733333,152
105350,,WAHLEN (AUT),DL,50.816667,9.133333,350
105360,,FULDA (USA-AF)    &,DL,50.55,9.65,305
105420,,BAD HERSFELD (AHP),DL,50.866667,9.716667,272
105440,,WASSERKUPPE (MOUNT),DL,50.5,9.95,925
105460,,KALTENNORDHEIM(AUT),DL,50.633333,10.15,494
105480,,MEININGEN         &,DL,50.566667,10.383333,453
105510,,SUHL,DL,50.616667,10.666667,505
105520,,SCHMUECKE (RIDGE) &,DL,50.65,10.766667,942
105540,EDDE,ERFURT/BINDERSLEBN&,DL,50.983333,10.966667,323
105570,,NEUHAUS           &,DL,50.5,11.133333,850
105580,,SONNEBERG/NEUFANG &,DL,50.383333,11.183333,630
105640,,SCHLEIZ (AUT),DL,50.566667,11.816667,502
105650,,OSTERFELD (AUT),DL,51.083333,11.933333,263
105670,,GERA/LEUMNITZ     &,DL,50.883333,12.133333,312
105690,,PLAUEN (AUT)      &,DL,50.483333,12.133333,389
105740,,CARLSFELD,DL,50.433333,12.616667,899
105750,,AUE,DL,50.6,12.716667,397
105770,,CHEMNITZ,DL,50.8,12.866667,419
105780,,FICHTELBERG MTN   &,DL,50.433333,12.95,1215
105790,,MARIENBERG,DL,50.65,13.15,640
105820,,ZINNWALD/GEORGENFE&,DL,50.733333,13.75,882
105910,,LICHTENHAIN-MITTELD,DL,50.933333,14.216667,300
106070,ETAD,SPANGDAHLEM (USAFB),DL,49.983333,6.7,365
106090,,TRIER/PETRISBERG,DL,49.75,6.666667,273
106130,ETSB,BUECHEL,DL,50.166667,7.066667,486
106140,ETAR,RAMSTEIN (USAFB),DL,49.433333,7.6,238
106150,,DEUSELBACH,DL,49.766667,7.05,483
106156,,BIRKENFELD,DL,49.65,7.183333,547
106160,EDFH,HAHN,DL,49.95,7.266667,498
106170,,TRABEN-TRARBACH,DL,49.966667,7.116667,252
106180,ETGI,IDAR-OBERSTEIN(MIL),DL,49.7,7.333333,377
106190,,BAUMHOLDER (USA-AF),DL,49.65,7.3,426
106260,ETSP,PFERDSFELD (GER-AF),DL,49.85,7.6,396
106270,ETEH,BAD KREUZNACH AAF &,DL,49.85,7.883333,103
106280,,GEISENHEIM,DL,49.983333,7.95,120
106330,ETOU,WIESBADEN (USA-AF),DL,50.05,8.333333,141
106334,ETCE,MEBSTETTEN/ALBSTADT,DL,50.116667,9.116667,475
106350,,KLEINER FELDBERG,DL,50.216667,8.45,802
106370,EDDF,FRANKFURT MAIN ARPT,DL,50.05,8.6,113
106373,,RHEIN MAIN (USAFB)&,DL,50.033333,8.566667,111
106380,,MAURICE ROSE(USAHP),DL,50.183333,8.65,104
106390,,LANGEN,DL,50.016667,8.666667,135
106400,,OFFENBACH/MAIN,DL,50.116667,8.733333,112
106420,ETID,HANAU (USA-AF),DL,50.166667,8.966667,112
106425,,BUDINGEN (USA-HP),DL,50.283333,9.083333,130
106450,,BREITSOL (AUT),DL,49.9,9.433333,581
106480,,MICHELSTADT/VIELBRU,DL,49.716667,9.1,455
106530,ETEU,GIEBELSTADT(USA-AF),DL,49.65,9.966667,298
106550,,WURZBURG (USA-AF),DL,49.766667,9.966667,268
106570,,WERTHEIM (USA-HP),DL,49.75,9.5,338
106580,,BAD KISSINGEN,DL,50.2,10.083333,266
106585,,BAD KISSINGEN (AAF),DL,50.2,10.116667,357
106590,ETIN,KITZINGEN (USA-AF),DL,49.75,10.2,210
106710,,COBURG,DL,50.283333,10.983333,337
106750,,BAMBERG (USA-AF),DL,49.883333,10.916667,243
106770,EDQD,BAYREUTH          &,DL,49.983333,11.633333,498
106850,EDQM,HOF,DL,50.316667,11.883333,568
106870,ETIC,GRAFENWOHR (USA-AF),DL,49.7,11.95,415
106874,,HERZO BASE (USA-HP),DL,49.583333,10.916667,329
106875,,ERLANGEN (USA-AF),DL,49.583333,11.033333,282
106880,,WEIDEN (MIL/MET),DL,49.666667,12.183333,439
107040,,BERUS,DL,49.283333,6.683333,367
107060,,THOLEY,DL,49.483333,7.05,398
107080,EDDR,SAARBRUCKEN/ENSHEIM,DL,49.216667,7.116667,320
107120,ETAS,SEMBACH (USAFB),DL,49.5,7.866667,321
107140,,ZWEIBRUCKEN (USAFB),DL,49.216667,7.4,345
107170,,PIRMASENS (USA-HP)&,DL,49.216667,7.616667,415
107240,,WEINBIET (AUT),DL,49.383333,8.116667,557
107250,,BADEN-OOS,DL,48.8,8.183333,126
107270,,KARLSRUHE (USA-AF),DL,49.033333,8.366667,145
107280,ETOR,COLEMAN (USA-AF)  &,DL,49.566667,8.466667,94
107290,,MANNHEIN/NEUOSTHEIM,DL,49.516667,8.55,100
107340,ETIE,HEIDELBERG (USA-AF),DL,49.4,8.65,109
107350,,SINSHEIM (AUT),DL,49.25,8.883333,169
107360,,MUEHLACKER (AUT),DL,48.966667,8.866667,245
107370,,STUTTGART/NECKARTAL,DL,48.783333,9.216667,224
107380,EDDS,STUTTGART/ECHTERDI&,DL,48.683333,9.216667,419
107385,,LUDWIGSBURG(USA-AF),DL,48.866667,9.233333,280
107390,,STUTTGART/SCHNARREN,DL,48.833333,9.2,311
107420,,OEHRINGEN,DL,49.216667,9.516667,277
107423,,SCHWABISCHGMUND AAF,DL,48.816667,9.8,443
107430,ETHN,NIEDERSTETTEN (GAM),DL,49.4,9.966667,473
107450,,SCHWABISCH HALL AAF,DL,49.116667,9.783333,398
107520,ETIK,ILLESHEIM (USA-AF),DL,49.466667,10.383333,325
107550,ETEB,KATTERBACH (USA-HP),DL,49.316667,10.633333,467
107610,,WEISSENBURG,DL,49.016667,10.966667,424
107620,,FURTH (USA-HP)    &,DL,49.5,10.966667,302
107630,EDDN,NURNBERG,DL,49.5,11.083333,312
107640,,FEUCHT (USA-AF),DL,49.383333,11.166667,386
107650,ETHR,ROTH (GER-ARMY),DL,49.216667,11.1,395
107710,ETGK,KUEMMERSBRUCK,DL,49.433333,11.9,418
107714,,AMBERG (USA-HP),DL,49.433333,11.85,414
107750,ETIH,HOHENFELS (USA-AF)&,DL,49.216667,11.833333,442
107760,,REGENSBURG/OBERHUB,DL,49.05,12.1,371
107770,,GELBELSEE (AUT),DL,48.95,11.433333,539
107880,,STRAUBING(GER-ARMY),DL,48.833333,12.566667,359
107910,,GROSSER ARBER (MTN),DL,49.116667,13.133333,1446
107960,,ZWIESEL (AUT),DL,49.033333,13.233333,613
108030,,FREIBURG (CIV/FAFB),DL,48,7.85,300
108050,,LAHR (CAN-AFB),DL,48.366667,7.833333,156
108150,,FREUDENSTADT,DL,48.45,8.416667,801
108180,,KLIPPENECK (CLIFF),DL,48.1,8.75,975
108270,ETGZ,MESSSTETTEN,DL,48.183333,9,920
108280,,SIGMARINGEN,DL,48.1,9.25,646
108354,,GOPPINGEN (USA-AF),DL,48.716667,9.7,382
108360,,STOETTEN,DL,48.666667,9.866667,737
108370,ETHL,LAUPHEIM (GER-ARMY),DL,48.216667,9.916667,549
108380,,ULM (MIL/MET),DL,48.383333,9.95,523
108500,,HARBURG (AUT),DL,48.783333,10.7,457
108520,EDMA,AUGSBERG/MULHAUSEN&,DL,48.433333,10.933333,463
108530,ETSN,NUEBURG/DONAU (GAF),DL,48.716667,11.216667,387
108560,ETSL,LECHFELD (GER-AFB),DL,48.183333,10.866667,562
108570,ETSA,LANDSBERG (GER-AFB),DL,48.066667,10.9,628
108580,ETSF,FUERSTENFELDBRUCK,DL,48.2,11.266667,535
108600,ETSI,INGOLSTADT(GER-MIL),DL,48.716667,11.533333,370
108620,,SIEGENBURG(MIL/MET),DL,48.75,11.8,404
108630,,WEIHENSTEPHAN,DL,48.4,11.7,470
108640,,NEUBIBERG (GER-AFB),DL,48.066667,11.633333,560
108644,EDMO,OBERPFAFFENHOFEN,DL,48.083333,11.283333,600
108650,,MUNICH,DL,48.133333,11.55,535
108660,EDDM,MUNICH/RIEM,DL,48.133333,11.7,529
108680,,MUNICH/OBERSCHLEISS,DL,48.25,11.55,489
108690,ETSE,ERDING (GER-AFB),DL,48.316667,11.95,467
108700,,MUNICH ARPT,DL,48.35,11.783333,448
108710,,FUERHOLZEN,DL,48.333333,11.616667,510
108750,,MUHLDORF,DL,48.283333,12.5,410
108930,,PASSAU,DL,48.583333,13.466667,408
109000,,BREMGARTEN(GER-AFB),DL,47.9,7.616667,217
109080,,FELDBERG/SCHWARZWAL,DL,47.883333,8,1493
109290,EDTZ,KONSTANZ,DL,47.683333,9.183333,447
109350,EDNY,FRIEDRICHSHAFEN   &,DL,47.666667,9.516667,424
109460,,KEMPTEN/DURACH,DL,47.716667,10.333333,705
109470,ETSM,MEMMINGEN (GER-AFB),DL,47.983333,10.233333,644
109480,,OBERSTDORF,DL,47.4,10.283333,812
109530,,KAUFBEUREN(GER-AFB),DL,47.866667,10.616667,721
109540,ETHA,ALTENSTADT/SCHONGAU,DL,47.833333,10.866667,760
109610,,ZUGSPITZE MOUNTAIN,DL,47.416667,10.983333,2962
109620,,HOHENPEISSENBERG,DL,47.8,11.016667,986
109630,,GARMISCH (USA-HP),DL,47.483333,11.066667,720
109710,,BAD TOLZ (USA-AF) &,DL,47.766667,11.6,716
109800,,WENDELSTEIN MTN,DL,47.7,12.016667,1835
109820,,CHIEMING (AUT),DL,47.883333,12.533333,549
110010,,WOLFSEGG,OS,48.1,13.683333,634
110030,,RIED IM INNKREIS,OS,48.216667,13.483333,443
110080,,ROHRBACH,OS,48.566667,14,602
110100,LOWL,LINZ (CIV/MIL),OS,48.233333,14.2,313
110110,LOXL,HORSCHING (AUS-AFB),OS,48.233333,14.183333,313
110120,,KREMSMUENSTER,OS,48.05,14.133333,388
110140,,KOENIGSWIESEN,OS,48.4,14.833333,608
110150,,FREISTADT,OS,48.516667,14.5,548
110160,,FREISTADT AIRPORT,OS,48.516667,14.416667,682
110180,,AMSTETTEN,OS,48.116667,14.866667,274
110190,,ALLENTSTEIG,OS,48.683333,15.366667,607
110200,,ZWETTL,OS,48.616667,15.2,511
110210,,LITSCHAU,OS,48.966667,15.033333,561
110220,,RETZ,OS,48.766667,15.95,262
110240,,JAUERLING (MOUNT),OS,48.35,15.366667,860
110280,,ST. POELTEN,OS,48.2,15.616667,282
110300,LOXT,LANGENLEBARN/TULLN,OS,48.316667,16.116667,176
110320,,POYSDORF,OS,48.666667,16.633333,209
110340,,WIEN/CITY (AUT),OS,48.2,16.366667,171
110350,,WIEN/HOHE WARTE,OS,48.25,16.366667,200
110360,LOWW,VIENNA/SCHWECHAT,OS,48.116667,16.566667,190
110370,,GROSSENZERSDORF,OS,48.2,16.566667,153
110510,,RANSHOFEN,OS,48.216667,13.033333,390
110550,,SCHAERDING (AUTO),OS,48.466667,13.433333,315
110600,,LINZ/STADT,OS,48.3,14.283333,262
110750,,LANGENOIS (AUT),OS,48.466667,15.7,210
110780,,LILLIENFELD/SULZER,OS,48.033333,15.583333,681
110810,,BADEN (AUT),OS,48.016667,16.233333,249
110820,,GUMPOLDSKIRCHEN,OS,48.033333,16.283333,218
111010,,BREGENZ,OS,47.5,9.75,438
111050,,FELDKIRCH,OS,47.266667,9.6,440
111090,,ST ANTON AM ARLBERG,OS,47.133333,10.316667,1275
111100,,GALZIG MOUNTAIN,OS,47.133333,10.233333,2080
111120,,LANDECK,OS,47.15,10.566667,785
111160,,REUTTE/TIROL,OS,47.5,10.75,870
111200,LOWI,INNSBRUCK AIRPORT,OS,47.266667,11.35,581
111220,LOXS,SCHWAZ (HELIPORT),OS,47.333333,11.7,543
111260,,PATSCHERKOFEL MTN,OS,47.216667,11.466667,2247
111270,,OBERGURGL,OS,46.866667,11.033333,1937
111280,,BRENNER PASS,OS,47,11.516667,1450
111300,,KUFSTEIN,OS,47.583333,12.166667,508
111320,LOIJ,ST. JOHANN AIRPORT,OS,47.516667,12.45,674
111340,,GERLOS (STREAM),OS,47.216667,12.033333,1250
111350,,HAHNENKAMM MOUNTAIN,OS,47.416667,12.366667,1760
111360,,KRIMML,OS,47.233333,12.183333,1000
111380,,ALPINZENTRUM RUDOLF,OS,47.133333,12.616667,2309
111400,,UNKEN,OS,47.666667,12.75,545
111410,,BISCHOFSHOFEN,OS,47.4,13.216667,550
111430,LOWZ,ZELL AM SEE AIRPORT,OS,47.3,12.783333,754
111440,,ZELL AM SEE (AUT),OS,47.333333,12.8,763
111450,,BAD GASTEIN,OS,47.116667,13.133333,1100
111460,,SONNBLICK MOUNTAIN,OS,47.05,12.95,3107
111470,,RADSTADT,OS,47.383333,13.45,845
111480,,ST. MICHAEL/LUNGAU,OS,47.1,13.65,1094
111490,,OBERTAUERN (AUT),OS,47.266667,13.566667,1742
111500,LOWS,SALZBURG AIRPORT,OS,47.8,13,450
111510,,SEEWALCHEN/ATTERSEE,OS,47.95,13.6,496
111520,,MATTSEE (AUT),OS,47.966667,13.1,502
111530,,MONDSEE,OS,47.85,13.366667,491
111540,,GMUNDEN (AUT),OS,47.9,13.783333,427
111550,,FEUERKOGEL (PEAK),OS,47.816667,13.733333,1621
111560,,BAD ISCHL,OS,47.716667,13.633333,470
111570,LOXA,AIGEN/ENNSTAL (MIL),OS,47.533333,14.133333,649
111600,,HIEFLAU,OS,47.6,14.75,492
111630,,STOLZALPE (MOUNT),OS,47.116667,14.2,1305
111650,LOXZ,ZELTWEG (MIL),OS,47.2,14.75,682
111700,,LUNZ,OS,47.85,15,615
111710,,MARIAZELL/ST SEBAST,OS,47.8,15.3,872
111720,,MARIAZELL,OS,47.766667,15.316667,875
111740,,ST. MICHAEL/LEOBEN,OS,47.333333,15.083333,580
111750,,BRUCK/MUR,OS,47.416667,15.266667,482
111800,,RAX/SEILBAHN-BERGST,OS,47.716667,15.783333,1546
111810,LOAV,VOSLAU AIRPORT,OS,47.966667,16.266667,233
111820,,WEINER NEUSTADT,OS,47.833333,16.216667,284
111830,,SEMMERING PASS,OS,47.633333,15.816667,960
111850,,MOENICHKIRCHEN,OS,47.516667,16.033333,1000
111860,,WECHSEL/SUD-SPARBER,OS,47.433333,16.116667,730
111900,,EISENSTADT,OS,47.85,16.533333,190
111920,,KLEINZICKEN,OS,47.216667,16.333333,267
111940,,NEUSIEDL AM SEE,OS,47.95,16.866667,129
111950,,PUNITZ/GUESSING,OS,47.15,16.316667,290
112020,,FELBERTAUERN/SUDPOR,OS,47.116667,12.5,1632
112040,,LIENZ,OS,46.833333,12.8,665
112070,,REISACH,OS,46.65,13.15,646
112100,,MALLNITZ,OS,46.983333,13.183333,1185
112110,,RADENTHEIN,OS,46.783333,13.7,685
112120,,VILLACHERALPE MTN,OS,46.6,13.666667,2160
112130,,VILLACH,OS,46.616667,13.866667,495
112140,,PREITENEGG,OS,46.933333,14.916667,1055
112190,,NEUMARKTER SATTEL,OS,47.116667,14.4,1125
112250,,WEITENSFELD,OS,46.85,14.2,705
112290,,ST. ANDRAE/LAVANTTA,OS,46.783333,14.8,468
112310,LOWK,KLAGENFURT(CIV/MIL),OS,46.65,14.333333,452
112320,,FEISTRITZ/BLEIBURG,OS,46.566667,14.766667,527
112400,LOWG,GRAZ (MIL/CIV),OS,47,15.433333,347
112410,,SCHOECKL MOUNTAIN,OS,47.2,15.466667,1438
112450,,BAD GLEICHENBERG,OS,46.866667,15.9,303
112480,,BAD RADKERSBURG,OS,46.7,15.983333,208
112520,,VIRGEN,OS,47,12.45,1198
112550,,KOETSCHACH/MAUTHEN,OS,46.683333,13,707
112600,,MALLNITZ (AUT),OS,46.983333,13.2,1184
112610,,OBERVELLACH,OS,46.933333,13.183333,822
112700,,DELLACH IM DRAUTAL,OS,46.75,13.083333,630
112750,,ABRIACH,OS,46.733333,13.85,896
112800,,MURAU,OS,47.116667,14.183333,818
112900,,GRAZ/UNIVERSITAET,OS,47.116667,15.45,377
112920,,LASSNITZHOEHE (AUT),OS,47.083333,15.583333,544
113020,,DORNBIRN,OS,47.433333,9.733333,410
113080,,WARTH,OS,47.25,10.183333,1475
113100,,ISCHGL/IDALDE (AUT),OS,46.983333,10.316667,2323
113400,,SCHMITTENHOEHE(AUT),OS,47.333333,12.733333,1956
113450,,ST. VEIT IM PONGAU,OS,47.35,13.15,750
113460,,RAURIS,OS,47.25,12.833333,917
113480,,MARIAPFARR,OS,47.15,13.75,1153
113500,,SALZBURG/FREISAAL,OS,47.783333,13.05,422
113510,,RAMSAU/DACHSTEIN,OS,47.416667,13.633333,1207
113550,,WINDISCHGARSTEN AUT,OS,47.733333,14.333333,611
113560,,BAD AUSSEE (AUT),OS,47.616667,13.783333,661
113570,,ST. WOLFGANG (AUT),OS,47.733333,13.45,542
113580,,BAD MITTERNDORF,OS,47.55,13.95,802
113600,,IRDNING/GUMPENSTEIN,OS,47.5,14.116667,710
113800,,REICHNAU/RAX (AUT),OS,47.7,15.85,485
113820,,PUCHBERG,OS,47.783333,15.916667,586
113840,,HIRSCHENKOGEL,OS,47.633333,15.816667,1323
113850,,WAND HOCHKOGELHAUS,OS,47.816667,16.033333,932
114060,,CHEB,CZ,50.083333,12.4,471
114140,LKKV,KARLOVY VARY,CZ,50.2,12.9,604
114180,,MARIANSKE LAZNE,CZ,49.916667,12.716667,541
114230,,PRIMDA,CZ,49.666667,12.666667,745
114380,,TUSIMICE,CZ,50.383333,13.35,322
114480,,PLZEN/DOBRANY,CZ,49.65,13.266667,364
114570,,CHURANOV,CZ,49.066667,13.616667,1126
114640,,MILESOVKA,CZ,50.55,13.933333,836
114870,,KOCELOVICE,CZ,49.466667,13.833333,522
115020,,USTI NAD LABEM,CZ,50.683333,14.033333,376
115090,,DOKSANY,CZ,50.466667,14.166667,159
115180,LKPR,PRAGUE/RUZYNE,CZ,50.1,14.283333,365
115200,,PRAGUE/LIBUS,CZ,50,14.45,304
115380,,TEMELIN,CZ,49.2,14.333333,508
115400,,HOSIN,CZ,49.033333,14.483333,488
115410,,CESKE BUDEJOVICE,CZ,48.933333,14.45,424
116030,,LIBEREC,CZ,50.766667,15.016667,400
116280,,KRAMOLIN-KOSETICE,CZ,49.583333,15.083333,534
116360,,KOSTELNI MYSLOVA,CZ,49.183333,15.466667,569
116430,,PEC POD SNEZKOU,CZ,50.666667,15.75,816
116480,,HRADEC KRALOVE,CZ,50.25,15.85,244
116590,,PRIBYSLAV,CZ,49.583333,15.766667,536
116790,,USTI NAD ORLICI,CZ,49.983333,16.433333,402
116830,,SVRATOUCH,CZ,49.733333,16.033333,737
116930,,DUKOVANY,CZ,49.1,16.133333,407
116980,,KUCHAROVICE,CZ,48.883333,16.083333,339
117100,,LUKA,CZ,49.65,16.95,518
117230,LKTB,BRNO/TURANY,CZ,49.15,16.7,246
117350,,PRADED MOUNTAIN,CZ,50.066667,17.233333,1492
117660,,CERVENA,CZ,49.783333,17.55,750
117740,LKHO,HOLESOV,CZ,49.316667,17.566667,224
117820,LKMT,OSTRAVA/MOSNOV,CZ,49.683333,18.116667,256
117870,,LYSA HORA (PEAK),CZ,49.55,18.45,1327
118160,LZIB,BRATISLAVA IVANKA,CZ,48.2,17.2,130
118260,LKPP,PIESTANY,CZ,48.533333,17.833333,169
118410,,ZILINA/HRICOV,CZ,49.233333,18.616667,315
118550,,NITRA,CZ,48.283333,18.133333,135
118580,,HURBANOVO,CZ,47.866667,18.2,124
118670,,PRIEVIDZA,CZ,48.766667,18.6,260
118800,,DUDINCE,CZ,48.166667,18.866667,143
119030,LKSL,SLIAC,CZ,48.633333,19.15,318
119160,,CHOPOK MOUNTAIN,CZ,48.933333,19.583333,2012
119180,,LIESEK,CZ,49.366667,19.683333,692
119270,,LUCENEC,CZ,48.333333,19.766667,219
119300,,LOMNICKY STIT(PEAK),CZ,49.2,20.216667,2635
119330,,STRBSKE PLESO,CZ,49.116667,20.083333,1368
119340,LZTT,POPRAD/TATRY,CZ,49.066667,20.25,707
119380,,SVERMOVO,CZ,48.85,20.183333,906
119520,,POPRAD/GANOVCE,CZ,49.033333,20.316667,706
119680,LKKZ,KOSICE,CZ,48.7,21.266667,232
119760,,STROPKOV/TISINEC,CZ,49.216667,21.65,220
119780,,MILHOSTOV,CZ,48.666667,21.733333,104
119930,,KAMENICA CIROCHOU,CZ,48.933333,22,178
121000,,KOLOBRZEG,PL,54.183333,15.583333,5
121050,EPKO,KOSZALIN          &,PL,54.2,16.15,34
121060,,ZEGRZE POMORSKIE,PL,54.033333,16.3,73
121150,,USTKA,PL,54.583333,16.866667,8
121163,EPSK,SLUPSK            &,PL,54.466667,17.016667,25
121200,,LEBA,PL,54.75,17.533333,2
121250,,LEBORK,PL,54.55,17.75,22
121350,,HEL,PL,54.6,18.816667,3
121450,,GDYNIA,PL,54.516667,18.566667,15
121500,EPGD,GDANSK/REBIECHOWO,PL,54.383333,18.466667,138
121550,,GDANSK/SWIBNO,PL,54.333333,18.933333,9
121600,,ELBLAG,PL,54.166667,19.433333,43
121850,,KETRZYN,PL,54.066667,21.366667,110
121950,,SUWALKI,PL,54.133333,22.95,186
122000,,SWINOUJSCIE,PL,53.916667,14.233333,5
122050,EPSC,SZCZECIN/GOLENIOW,PL,53.4,14.616667,3
122100,,RESKO,PL,53.766667,15.416667,56
122150,,SZCZECINEK,PL,53.716667,16.683333,144
122300,,PILA,PL,53.133333,16.75,73
122350,,CHOJNICE,PL,53.7,17.55,177
122500,,TORUN,PL,53.033333,18.583333,72
122700,,MLAWA,PL,53.1,20.35,149
122720,,OLSZTYN,PL,53.766667,20.416667,135
122800,,MIKOLAJKI,PL,53.783333,21.583333,131
122850,,OSTROLEKA,PL,53.083333,21.566667,96
122950,,BIALYSTOK,PL,53.1,23.166667,151
123000,,GORZOW/WIELKOPOLSKI,PL,52.75,15.283333,73
123100,,SLUBICE,PL,52.35,14.6,24
123300,EPPO,POZNAN/LAWICA,PL,52.416667,16.833333,92
123450,,KOLO,PL,52.2,18.666667,117
123600,,PLOCK,PL,52.583333,19.733333,109
123740,,LEGIONOWO,PL,52.4,20.966667,96
123750,EPWA,WARSAW/OKECIE,PL,52.166667,20.966667,107
123850,,SIEDLCE,PL,52.183333,22.266667,149
123990,,TERESPOL,PL,52.066667,23.616667,137
124000,EPZG,ZIELONA GORA      &,PL,51.933333,15.533333,192
124150,,LEGNICA BARTOSZOW,PL,51.2,16.2,124
124180,,LESZNO/STRZYZEWICE,PL,51.833333,16.533333,92
124240,EPWR,WROCLAW/STRACHOWICE,PL,51.1,16.883333,121
124250,,WROCLAW/MALY GADOW,PL,51.133333,16.983333,116
124350,,KALISZ,PL,51.733333,18.083333,144
124550,,WIELUN,PL,51.216667,18.566667,201
124650,,LODZ,PL,51.733333,19.4,188
124690,,SULEJOW,PL,51.35,19.866667,189
124850,,RADOM,PL,51.416667,21.116667,185
124880,,KOZIENICE,PL,51.566667,21.55,126
124900,,DEBLIN/IRENA,PL,51.55,21.85,124
124950,,LUBLIN RADAWIEC,PL,51.216667,22.4,240
124970,,WLODAWA,PL,51.55,23.533333,179
125000,,JELENIA GORA,PL,50.9,15.8,344
125100,,SNIEZKA MOUNTAIN,PL,50.733333,15.733333,1613
125200,,KLODZKO,PL,50.433333,16.616667,357
125300,,OPOLE,PL,50.666667,17.966667,178
125400,,RACIBORZ,PL,50.05,18.2,206
125500,,CZESTOCHOWA,PL,50.816667,19.1,295
125550,,PYRZOWICE,PL,50.483333,19.083333,301
125600,EPKT,KATOWICE/PYRZOWICE,PL,50.233333,19.033333,284
125660,EPKK,KRAKOW/BALICE,PL,50.083333,19.8,237
125700,,KIELCE,PL,50.816667,20.7,261
125750,,TARNOW,PL,50.033333,20.983333,209
125800,EPRZ,RZESZOW/JASIONKA,PL,50.1,22.05,202
125850,,SANDOMIERZ,PL,50.7,21.716667,218
125950,,ZAMOSC,PL,50.7,23.25,213
126000,,BIELSKO/BIALA,PL,49.8,19,399
126250,,ZAKOPANE,PL,49.3,19.95,860
126500,,KASPROWY WIERCH,PL,49.233333,19.983333,1989
126600,,NOWY SACZ,PL,49.616667,20.7,295
126700,,BOGUS POLISH,PL,0,0,
126900,,LESKO,PL,49.466667,22.333333,422
126950,,PRZEMYSL,PL,49.8,22.766667,280
127720,,MISKOLC,HU,48.1,20.783333,233
128050,,SOPRON,HU,47.683333,16.6,238
128120,LHSY,SZOMBATHELY,HU,47.266667,16.633333,221
128220,,GYOR,HU,47.7,17.683333,116
128250,LHPA,PAPA,HU,47.35,17.466667,141
128300,,VESZPREM,HU,47.083333,17.916667,303
128305,LHTL,TOKOL,HU,47.35,18.983333,101
128310,,DOBOGOKO (MOUNT),HU,47.7,18.883333,676
128380,,BUDAORS,HU,47.45,18.966667,132
128390,LHBP,BUDAPEST/FERIHEGY,HU,47.433333,19.266667,185
128400,,BUDAPEST MET CENTER,HU,47.516667,19.033333,129
128430,,BUDAPEST/LORINC,HU,47.433333,19.183333,139
128510,,KEKESTETO (MOUNT),HU,47.866667,20.016667,1015
128600,LHSN,SZOLNOK,HU,47.166667,20.233333,85
128601,LHSA,AZENTKILYSZABADJA,HU,47.066667,17.983333,303
128820,LHDC,DEBRECEN AIRPORT,HU,47.483333,21.633333,112
128920,,NYIREGYHAZA,HU,48.016667,21.733333,106
129100,,SZENTGOTTHARD/FARKA,HU,46.916667,16.3,313
129150,,ZALAEGERSZEG,HU,46.866667,16.8,179
129200,,KESZTHELY,HU,46.75,17.233333,116
129250,,NAGYKANIZSA,HU,46.45,16.983333,141
129255,LHTA,TASZAR,HU,46.4,17.916667,160
129300,,KAPOSVAR,HU,46.383333,17.833333,145
129350,,SIOFOK,HU,46.916667,18.033333,108
129420,LHPP,PECS,HU,46,18.233333,203
129500,,PAKS,HU,46.616667,18.866667,98
129600,,BAJA,HU,46.183333,19.016667,113
129700,LHKE,KECSKEMET,HU,46.9,19.75,116
129820,LHUD,SZEGED (AUT),HU,46.25,20.1,83
129920,LHBC,BEKESCSABA,HU,46.7,21.133333,86
130050,,BOVEC,YG,46.333333,13.566667,452
130060,,VOGEL,YG,46.266667,13.833333,1535
130070,,RATECE/PLANICA,YG,46.5,13.716667,865
130080,,KREDARICA,YG,46.383333,13.85,2519
130090,,VOJSKO,YG,46.033333,13.866667,1070
130100,,LESCE-HLEBCE,YG,46.366667,14.183333,515
130120,,KATARINA,YG,46.1,14.366667,685
130140,LJLJ,LJUBLJANA/BRNIK,LJ,46.216667,14.483333,385
130150,,LJUBLJANA/BEZIGRAD,YG,46.066667,14.516667,316
130200,,ROGLA,YG,46.45,15.333333,1480
130210,,SMARTNO,YG,46.483333,15.116667,452
130230,,CELJE,YG,46.25,15.25,244
130240,,LISCA,YG,46.066667,15.283333,941
130250,,MARIBOU-MESTO,YG,46.533333,15.65,274
130260,,MARIBOR,LJ,46.483333,15.683333,265
130310,LJMS,MURSKA SOBOTA,LJ,46.65,16.183333,188
130330,,VARAZDIN,YG,46.3,16.383333,168
130670,,PALIC,YG,46.1,19.766667,105
131050,LJPZ,PORTOROZ,LJ,45.516667,13.566667,95
131060,,NOVA GORICA,YG,45.9,13.633333,56
131110,,IL SISTRICA,YG,45.566667,14.25,413
131120,,POSTOJNA,YG,45.766667,14.2,533
131160,LDRI,RIJEKA/OMISALJ,RH,45.216667,14.583333,85
131180,,KOCEVJE,YG,45.9,14.866667,56
131200,,CRNOMELJ,YG,45.566667,15.15,157
131210,LJNM,NOVO MESTO,LJ,45.8,15.183333,213
131220,,OGULIN            &,YG,45.266667,15.233333,328
131280,,PUNTIJARKA (MOUNT),YG,45.916667,15.966667,988
131290,,ZAGREB/GRIC       &,YG,45.816667,15.983333,162
131300,,ZAGREB/MAKSIMIR,YG,45.816667,16.033333,128
131310,LDZA,ZAGREB/PLESO,RH,45.733333,16.066667,107
131420,,DARUVAR,YG,45.6,17.233333,162
131500,,SLAVONSKI BROD,YG,45.166667,18,89
131570,LDOS,OSIJEK,RH,45.466667,18.816667,89
131590,,OSIJEK/SPA,RH,45.533333,18.633333,92
131600,,SOMBOR,YG,45.766667,19.15,89
131680,,NOVI SAD RIMSKI,YG,45.333333,19.85,87
131730,,ZRENJANIN,YG,45.366667,20.416667,82
131740,,KIKINDA,YG,45.85,20.466667,82
131800,,BAATSKI KARLOVAC,YG,45.05,21.033333,9
131830,LYVR,VRSAC,YG,45.15,21.316667,85
132090,LDPL,PULA,RH,44.9,13.916667,63
132140,,MALI LOSINJ,YG,44.533333,14.466667,53
132180,,SENJ              &,YG,45,14.9,28
132190,,ZAVIZAN MOUNTAIN,YG,44.816667,14.983333,1597
132230,,GOSPIC,YG,44.55,15.366667,565
132240,,ZADAR/ZEMUNIK,RH,44.1,15.366667,84
132280,,BIHAC,YG,44.816667,15.883333,250
132420,,BANJA LUKA,YG,44.783333,17.216667,156
132440,,BUGOJNA,YG,44.066667,17.466667,566
132490,,ZENICA,YG,44.216667,17.9,348
132570,,TUZLA,YG,44.55,18.7,306
132620,,LOZNICA,YG,44.55,19.233333,122
132660,,SREMSKA MITROVICA,YG,45.1,19.55,83
132690,,VALJEVO,YG,44.316667,19.916667,177
132720,LYBE,BELGRADE/SURCIN   &,YG,44.816667,20.283333,99
132740,,BEOGRAD/BELGRADE,YG,44.8,20.466667,132
132750,,BELGRADE/KOSUTNJAK,YG,44.766667,20.416667,203
132790,,SMEDEREVSKA PALANKA,YG,44.366667,20.95,122
132850,,VELIKO GRADISTE,YG,44.75,21.516667,84
132890,,CRNI VRH MOUNTAIN,YG,44.116667,21.95,1039
132950,,NEGOTIN           &,YG,44.233333,22.55,44
133290,,SIBENIK,YG,43.733333,15.916667,75
133330,LDSP,SPLIT/KASTEL STAFIL,RH,43.533333,16.3,21
133340,,SPLIT/MARJAN,YG,43.516667,16.433333,128
133350,,HVAR,YG,43.166667,16.45,25
133400,,LIVNO,YG,43.833333,17.016667,728
133480,LYMO,MOSTAR,YG,43.35,17.8,108
133520,,BJELASNICA MTN RNG,YG,43.716667,18.266667,2070
133530,LQSA,SARAJEVO/BUTMIR,YG,43.816667,18.333333,511
133540,,SARAJEVO          &,YG,43.866667,18.433333,638
133560,,CEMERNO,YG,43.233333,18.6,1309
133610,,ZABLJAK,YG,43.15,19.133333,1450
133630,,PLEVLJA,YG,43.35,19.35,788
133670,,ZLATIBOR MTN RANGE,YG,43.733333,19.716667,1029
133690,,SJENICA,YG,43.283333,20,1039
133700,,POZEGA UZICKA     &,YG,43.833333,20.033333,312
133760,,KRALJEVO,YG,43.7,20.7,217
133780,,KOPAONIK MTN RANGE,YG,43.283333,20.8,1713
133820,,KURSUMLIJA,YG,43.133333,21.266667,383
133830,,KRUSEVAC,YG,43.566667,21.35,167
133840,,CUPRIJA,YG,43.933333,21.383333,125
133880,LYNI,NIS,YG,43.333333,21.9,202
133890,,LESKOVAC,YG,42.983333,21.95,232
133970,,DIMITROVGRAD,YG,43.016667,22.75,450
134320,,PALAGRUZA,YG,42.4,16.266667,97
134390,,LASTOVO ISLAND,YG,42.766667,16.9,187
134510,,DUBROVNIK GORICA,RH,42.65,18.083333,53
134520,,DUBROVNIK-CILIPI,RH,42.566667,18.266667,165
134550,,HERCEGNOVI-IGALO  &,YG,42.45,18.55,10
134570,LYTV,TIVAT,YG,42.4,18.733333,5
134590,,NIKSIC,YG,42.766667,18.95,647
134610,,BAR,YG,42.1,19.1,6
134620,LYTI,TITOGRAD/GOLUBOVCI,YG,42.366667,19.25,33
134624,LYPG,PODGORICA(TITOGRAD),YG,42.433333,19.283333,53
134650,,KOLASIN,YG,42.833333,19.533333,945
134730,,PEC,YG,42.666667,20.3,499
134770,,PRIZREN,YG,42.216667,20.733333,403
134810,LYPR,PRISTINA,YG,42.65,21.15,576
134890,,VRANJE,YG,42.55,21.916667,434
134900,,RESERVED FOR NAVY,**,0,0,
134910,,SKOPJE,YG,42.516667,22.283333,1176
134930,,KRIVA PALANKA,YG,42.2,22.333333,696
135620,,ULCINJ,YG,41.916667,19.216667,29
135770,,LAZAROPOLE,YG,41.533333,20.7,1321
135780,LWOH,OHRID,YG,41.116667,20.8,761
135790,,BOGUS YUGOSLAVIAN,YG,0,0,
135830,,BITOLA,YG,41.05,21.366667,589
135850,,PRILEP,YG,41.333333,21.566667,674
135860,LWSK,SKOPJE/PETROVAC   &,YG,41.966667,21.65,239
135910,,STIP,YG,41.75,22.183333,327
135920,,DEMIR KAPIJA,YG,41.416667,22.25,126
135980,,BEROVO,YG,41.716667,22.85,836
136000,,SHKODRA,AB,42.1,19.533333,44
136100,,KUKES,AB,42.033333,20.416667,358
136110,,DURRES/DURAZZO,AB,41.3,19.45,12
136120,,DURRES,AB,41.3,19.466667,8
136150,LATI,TIRANA,AB,41.333333,19.783333,90
136190,,PESHKOPI,AB,41.683333,20.433333,653
136220,,VLORE,AB,40.466667,19.483333,5
136240,,QYTETI STALIN,AB,40.8,19.9,33
136250,,GJIROKASTRA,AB,40.083333,20.15,194
140050,,BOVEC,LJ,46.333333,13.566667,452
140060,,VOGEL,LJ,46.266667,13.833333,1535
140070,,RATECE\PLANICA,LJ,46.5,13.716667,865
140090,,VOJSKO,LJ,46.033333,13.866667,1070
140100,,LESCE\HLEBCE,LJ,46.366667,14.183333,515
140120,,KATARINA,LJ,46.1,14.366667,685
140150,,LUUBLUANA\BEZIGRAD,LJ,46.066667,14.516667,316
140210,,SLOVENJ GRADEC,LJ,46.483333,15.116667,452
140230,,CELUE,LJ,46.25,15.25,244
140250,,MARIBOR\TABOR,LJ,46.533333,15.65,274
140260,LJMB,MARIBOR SLIVNICA,LJ,46.483333,15.683333,265
141050,,PORTOROZ-SECOVLJE,LJ,45.483333,13.616667,2
141060,,NOVA GORICA,LJ,45.9,13.633333,56
141110,,ILIRSKA BISTRICA,LJ,45.566667,14.25,413
141120,,POSTOJNA,LJ,45.766667,14.2,533
142480,,KRIZEVCI,RH,46.033333,16.55,155
143200,,CRIKVENICA,RH,45.166667,14.7,2
143820,,GRADISTE,RH,45.15,18.7,97
144310,LDZD,ZADAR\ZEMUNIK,RH,44.1,15.366667,84
144420,,KNIN,RH,44.033333,16.2,255
144740,LDDU,DUBROVNIK\LILIPI,RH,42.566667,18.266667,165
150000,,BOGUS ROMANIAN,RO,0,0,261
150010,,AVRAMENI,RO,48.016667,26.95,240
150040,,SIGHETU MARMATIEI,RO,47.966667,23.916667,276
150070,,RADAUTI,RO,47.85,25.916667,392
150090,,DOROHOI,RO,47.966667,26.4,241
150100,LRSM,SATU MARE,RO,47.783333,22.883333,124
150110,,BOGUS ROMANIAN,RO,0,0,125
150140,LRBM,BAIA MARE,RO,47.666667,23.583333,218
150150,,OCNA SUGATAG,RO,47.783333,23.933333,504
150200,,BOTOSANI,RO,47.683333,26.666667,162
150230,LRSV,SUCEAVA/SALCEA,RO,47.65,26.25,351
150250,,BOGUS ROMANIAN,RO,0,0,110
150320,,RODNEI MOUNTAIN RNG,RO,47.583333,24.666667,2303
150330,,INEU MOUNTAIN,RO,47.533333,24.883333,1792
150400,,CIMPULUNG MOLDOVENE,RO,47.533333,25.566667,660
150410,,RAUSENI,RO,47.566667,27.2,61
150420,,SACUENI,RO,47.366667,22.1,113
150440,,SUPURU DE JOS,RO,47.466667,22.8,162
150470,,BOGUS ROMANIAN,RO,0,0,
150520,,RARAU (MONASTERY),RO,47.45,25.566667,1541
150540,,BOGUS ROMANIAN,RO,0,0,
150550,,RADASENI,RO,47.466667,26.25,230
150560,,COTNARI,RO,47.35,26.983333,289
